Année;Commune;Code INSEE;Département;Numéro département;Volume;Usage;Mode obtention;Longitude;Latitude;Statut;Qualification;Prélèvement écrasant;Ouvrage;Geometrie;url_fiche
2012;Aulnoy;77013;Seine-et-Marne;77;469654.0;EAU POTABLE;Mesure directe;3.092668517927545;48.84875095782432;Contrôlé Niveau 1;Correcte;False;AULNOY;{'type': 'Point', 'crs': {'type': 'name', 'properties': {'name': 'urn:ogc:def:crs:OGC:1.3:CRS84'}}, 'coordinates': [3.092668517927545, 48.84875095782432]};https://id.eaufrance.fr/OuvragePrel/OPR0000199343
2012;Coulommiers;77131;Seine-et-Marne;77;237490.0;EAU POTABLE;Mesure directe;3.0913281753348487;48.80954433916146;Contrôlé Niveau 1;Correcte;False;COULOMMIERS - Margat 3;{'type': 'Point', 'crs': {'type': 'name', 'properties': {'name': 'urn:ogc:def:crs:OGC:1.3:CRS84'}}, 'coordinates': [3.0913281753348487, 48.80954433916146]};https://id.eaufrance.fr/OuvragePrel/OPR0000199344
2012;Coulommiers;77131;Seine-et-Marne;77;172040.0;EAU POTABLE;Mesure directe;3.0913281753348487;48.80954433916146;Contrôlé Niveau 1;Correcte;False;COULOMMIERS - Pouilly 82;{'type': 'Point', 'crs': {'type': 'name', 'properties': {'name': 'urn:ogc:def:crs:OGC:1.3:CRS84'}}, 'coordinates': [3.0913281753348487, 48.80954433916146]};https://id.eaufrance.fr/OuvragePrel/OPR0000199345
2012;Coulommiers;77131;Seine-et-Marne;77;38027.0;EAU POTABLE;Mesure directe;3.0913281753348487;48.80954433916146;Contrôlé Niveau 1;Correcte;False;COULOMMIERS - Beaugrand;{'type': 'Point', 'crs': {'type': 'name', 'properties': {'name': 'urn:ogc:def:crs:OGC:1.3:CRS84'}}, 'coordinates': [3.0913281753348487, 48.80954433916146]};https://id.eaufrance.fr/OuvragePrel/OPR0000199346
2012;Coulommiers;77131;Seine-et-Marne;77;196412.0;EAU POTABLE;Mesure directe;3.0913281753348487;48.80954433916146;Contrôlé Niveau 1;Correcte;False;COULOMMIERS - Margat 2;{'type': 'Point', 'crs': {'type': 'name', 'properties': {'name': 'urn:ogc:def:crs:OGC:1.3:CRS84'}}, 'coordinates': [3.0913281753348487, 48.80954433916146]};https://id.eaufrance.fr/OuvragePrel/OPR0000199347
2012;Trilport;77475;Seine-et-Marne;77;9118.0;EAU POTABLE;Mesure directe;2.970694258977874;48.95816135711037;Contrôlé Niveau 1;Correcte;False;TRILPORT;{'type': 'Point', 'crs': {'type': 'name', 'properties': {'name': 'urn:ogc:def:crs:OGC:1.3:CRS84'}}, 'coordinates': [2.9706942589778746, 48.95816135711037]};https://id.eaufrance.fr/OuvragePrel/OPR0000199358
2012;Germigny-l'Évêque;77203;Seine-et-Marne;77;122458.0;EAU POTABLE;Mesure directe;2.953993058338205;48.98894222877762;Contrôlé Niveau 1;Correcte;False;GERMIGNY L EVEQUE;{'type': 'Point', 'crs': {'type': 'name', 'properties': {'name': 'urn:ogc:def:crs:OGC:1.3:CRS84'}}, 'coordinates': [2.953993058338205, 48.988942228777624]};https://id.eaufrance.fr/OuvragePrel/OPR0000199359
2012;Ferté-Gaucher;77182;Seine-et-Marne;77;38868.0;EAU POTABLE;Mesure directe;3.305730893292199;48.79140520480253;Contrôlé Niveau 1;Correcte;False;LA FERTE GAUCHER;{'type': 'Point', 'crs': {'type': 'name', 'properties': {'name': 'urn:ogc:def:crs:OGC:1.3:CRS84'}}, 'coordinates': [3.305730893292199, 48.79140520480253]};https://id.eaufrance.fr/OuvragePrel/OPR0000199378
2012;Ferté-Gaucher;77182;Seine-et-Marne;77;38868.0;EAU POTABLE;Mesure directe;3.305730893292199;48.79140520480253;Contrôlé Niveau 1;Correcte;False;LA FERTE GAUCHER;{'type': 'Point', 'crs': {'type': 'name', 'properties': {'name': 'urn:ogc:def:crs:OGC:1.3:CRS84'}}, 'coordinates': [3.305730893292199, 48.79140520480253]};https://id.eaufrance.fr/OuvragePrel/OPR0000199379
2012;Lumigny-Nesles-Ormeaux;77264;Seine-et-Marne;77;52240.0;EAU POTABLE;Mesure directe;2.964206168414635;48.72445829356784;Contrôlé Niveau 1;Correcte;False;LUMIGNY NESLES ORMEAUX;{'type': 'Point', 'crs': {'type': 'name', 'properties': {'name': 'urn:ogc:def:crs:OGC:1.3:CRS84'}}, 'coordinates': [2.964206168414635, 48.72445829356784]};https://id.eaufrance.fr/OuvragePrel/OPR0000199380
2012;Pécy;77357;Seine-et-Marne;77;50261.0;EAU POTABLE;Mesure directe;3.065451503926374;48.645851149009175;Contrôlé Niveau 1;Correcte;False;PECY;{'type': 'Point', 'crs': {'type': 'name', 'properties': {'name': 'urn:ogc:def:crs:OGC:1.3:CRS84'}}, 'coordinates': [3.065451503926374, 48.645851149009175]};https://id.eaufrance.fr/OuvragePrel/OPR0000199381
2012;Bannost-Villegagnon;77020;Seine-et-Marne;77;221616.0;EAU POTABLE;Mesure directe;3.1930545791637224;48.67618236742411;Contrôlé Niveau 1;Correcte;False;BANNOST VILLEGAGNON;{'type': 'Point', 'crs': {'type': 'name', 'properties': {'name': 'urn:ogc:def:crs:OGC:1.3:CRS84'}}, 'coordinates': [3.1930545791637224, 48.67618236742411]};https://id.eaufrance.fr/OuvragePrel/OPR0000199382
2012;Ferté-Gaucher;77182;Seine-et-Marne;77;40046.0;EAU POTABLE;Mesure directe;3.305730893292199;48.79140520480253;Contrôlé Niveau 1;Correcte;False;LA FERTE GAUCHER;{'type': 'Point', 'crs': {'type': 'name', 'properties': {'name': 'urn:ogc:def:crs:OGC:1.3:CRS84'}}, 'coordinates': [3.305730893292199, 48.79140520480253]};https://id.eaufrance.fr/OuvragePrel/OPR0000199383
2012;Sancy-lès-Provins;77444;Seine-et-Marne;77;13286.0;EAU POTABLE;Mesure directe;3.3978901809046675;48.71062697810872;Contrôlé Niveau 1;Correcte;False;SANCY LES PROVINS;{'type': 'Point', 'crs': {'type': 'name', 'properties': {'name': 'urn:ogc:def:crs:OGC:1.3:CRS84'}}, 'coordinates': [3.3978901809046675, 48.71062697810872]};https://id.eaufrance.fr/OuvragePrel/OPR0000199384
2012;Saint-Hilliers;77414;Seine-et-Marne;77;10729.0;EAU POTABLE;Mesure directe;3.2528728437974506;48.6322200301484;Contrôlé Niveau 1;Correcte;False;ST HILLIERS;{'type': 'Point', 'crs': {'type': 'name', 'properties': {'name': 'urn:ogc:def:crs:OGC:1.3:CRS84'}}, 'coordinates': [3.2528728437974506, 48.6322200301484]};https://id.eaufrance.fr/OuvragePrel/OPR0000199385
2012;Saint-Hilliers;77414;Seine-et-Marne;77;10729.0;EAU POTABLE;Mesure directe;3.2528728437974506;48.6322200301484;Contrôlé Niveau 1;Correcte;False;ST HILLIERS;{'type': 'Point', 'crs': {'type': 'name', 'properties': {'name': 'urn:ogc:def:crs:OGC:1.3:CRS84'}}, 'coordinates': [3.2528728437974506, 48.6322200301484]};https://id.eaufrance.fr/OuvragePrel/OPR0000199386
2012;Beauchery-Saint-Martin;77026;Seine-et-Marne;77;19881.0;EAU POTABLE;Mesure directe;3.4121221416444047;48.60041374800909;Contrôlé Niveau 1;Correcte;False;Beauchery Saint Martin 1;{'type': 'Point', 'crs': {'type': 'name', 'properties': {'name': 'urn:ogc:def:crs:OGC:1.3:CRS84'}}, 'coordinates': [3.4121221416444047, 48.60041374800909]};https://id.eaufrance.fr/OuvragePrel/OPR0000199387
2012;Rupéreux;77396;Seine-et-Marne;77;28835.0;EAU POTABLE;Mesure directe;3.3276529682676053;48.640058342787896;Contrôlé Niveau 1;Correcte;False;RUPEREUX;{'type': 'Point', 'crs': {'type': 'name', 'properties': {'name': 'urn:ogc:def:crs:OGC:1.3:CRS84'}}, 'coordinates': [3.3276529682676053, 48.640058342787896]};https://id.eaufrance.fr/OuvragePrel/OPR0000199388
2012;Villiers-Saint-Georges;77519;Seine-et-Marne;77;64658.0;EAU POTABLE;Mesure directe;3.4138690590392797;48.65337513581312;Contrôlé Niveau 1;Correcte;False;VILLIERS ST GEORGES;{'type': 'Point', 'crs': {'type': 'name', 'properties': {'name': 'urn:ogc:def:crs:OGC:1.3:CRS84'}}, 'coordinates': [3.4138690590392793, 48.65337513581312]};https://id.eaufrance.fr/OuvragePrel/OPR0000199389
2012;Louan-Villegruis-Fontaine;77262;Seine-et-Marne;77;14681.0;EAU POTABLE;Mesure directe;3.486534073724369;48.609994805643865;Contrôlé Niveau 1;Correcte;False;LOUAN VILLEGRUIS FONTAINE;{'type': 'Point', 'crs': {'type': 'name', 'properties': {'name': 'urn:ogc:def:crs:OGC:1.3:CRS84'}}, 'coordinates': [3.4865340737243695, 48.609994805643865]};https://id.eaufrance.fr/OuvragePrel/OPR0000199390
2012;Louan-Villegruis-Fontaine;77262;Seine-et-Marne;77;30793.0;EAU POTABLE;Mesure directe;3.486534073724369;48.609994805643865;Contrôlé Niveau 1;Correcte;False;LOUAN VILLEGRUIS FONTAINE;{'type': 'Point', 'crs': {'type': 'name', 'properties': {'name': 'urn:ogc:def:crs:OGC:1.3:CRS84'}}, 'coordinates': [3.4865340737243695, 48.609994805643865]};https://id.eaufrance.fr/OuvragePrel/OPR0000199391
2012;Vieux-Champagne;77496;Seine-et-Marne;77;68930.0;EAU POTABLE;Mesure directe;3.1381662574989653;48.588573593352;Contrôlé Niveau 1;Correcte;False;VIEUX CHAMPAGNE;{'type': 'Point', 'crs': {'type': 'name', 'properties': {'name': 'urn:ogc:def:crs:OGC:1.3:CRS84'}}, 'coordinates': [3.1381662574989653, 48.588573593352]};https://id.eaufrance.fr/OuvragePrel/OPR0000199392
2012;Saint-Brice;77403;Seine-et-Marne;77;50613.0;EAU POTABLE;Mesure directe;3.3319694275722744;48.57326636360542;Contrôlé Niveau 1;Correcte;False;SAINT-BRICE;{'type': 'Point', 'crs': {'type': 'name', 'properties': {'name': 'urn:ogc:def:crs:OGC:1.3:CRS84'}}, 'coordinates': [3.3319694275722744, 48.57326636360542]};https://id.eaufrance.fr/OuvragePrel/OPR0000199393
2012;Noyen-sur-Seine;77341;Seine-et-Marne;77;192692.0;EAU POTABLE;Mesure directe;3.338143479062212;48.45121149199221;Contrôlé Niveau 1;Correcte;False;NOYEN SUR SEINE;{'type': 'Point', 'crs': {'type': 'name', 'properties': {'name': 'urn:ogc:def:crs:OGC:1.3:CRS84'}}, 'coordinates': [3.338143479062212, 48.45121149199221]};https://id.eaufrance.fr/OuvragePrel/OPR0000199395
2012;Noyen-sur-Seine;77341;Seine-et-Marne;77;623243.0;EAU POTABLE;Mesure directe;3.338143479062212;48.45121149199221;Contrôlé Niveau 1;Correcte;False;Noyen sur Seine 3 (Champ capta nt de la ville de Provins);{'type': 'Point', 'crs': {'type': 'name', 'properties': {'name': 'urn:ogc:def:crs:OGC:1.3:CRS84'}}, 'coordinates': [3.338143479062212, 48.45121149199221]};https://id.eaufrance.fr/OuvragePrel/OPR0000199396
2012;Noyen-sur-Seine;77341;Seine-et-Marne;77;58739.0;EAU POTABLE;Mesure directe;3.338143479062212;48.45121149199221;Contrôlé Niveau 1;Correcte;False;NOYEN SUR SEINE/PUITS 2;{'type': 'Point', 'crs': {'type': 'name', 'properties': {'name': 'urn:ogc:def:crs:OGC:1.3:CRS84'}}, 'coordinates': [3.338143479062212, 48.45121149199221]};https://id.eaufrance.fr/OuvragePrel/OPR0000199397
2012;Noyen-sur-Seine;77341;Seine-et-Marne;77;548019.0;EAU POTABLE;Mesure directe;3.338143479062212;48.45121149199221;Contrôlé Niveau 1;Correcte;False;NOYEN SUR SEINE;{'type': 'Point', 'crs': {'type': 'name', 'properties': {'name': 'urn:ogc:def:crs:OGC:1.3:CRS84'}}, 'coordinates': [3.338143479062212, 48.45121149199221]};https://id.eaufrance.fr/OuvragePrel/OPR0000199398
2012;Moret-Loing-et-Orvanne;77316;Seine-et-Marne;77;411786.0;EAU POTABLE;Mesure directe;2.83843667312661;48.35444730072483;Contrôlé Niveau 1;Correcte;False;VENEUX LES SABLONS;{'type': 'Point', 'crs': {'type': 'name', 'properties': {'name': 'urn:ogc:def:crs:OGC:1.3:CRS84'}}, 'coordinates': [2.83843667312661, 48.35444730072483]};https://id.eaufrance.fr/OuvragePrel/OPR0000199399
2012;Moret-Loing-et-Orvanne;77316;Seine-et-Marne;77;97564.0;EAU POTABLE;Mesure directe;2.83843667312661;48.35444730072483;Contrôlé Niveau 1;Correcte;False;VENEUX LES SABLONS;{'type': 'Point', 'crs': {'type': 'name', 'properties': {'name': 'urn:ogc:def:crs:OGC:1.3:CRS84'}}, 'coordinates': [2.83843667312661, 48.35444730072483]};https://id.eaufrance.fr/OuvragePrel/OPR0000199400
2012;Moret-Loing-et-Orvanne;77316;Seine-et-Marne;77;168535.0;EAU POTABLE;Mesure directe;2.83843667312661;48.35444730072483;Contrôlé Niveau 1;Correcte;False;MORET SUR LOING;{'type': 'Point', 'crs': {'type': 'name', 'properties': {'name': 'urn:ogc:def:crs:OGC:1.3:CRS84'}}, 'coordinates': [2.83843667312661, 48.35444730072483]};https://id.eaufrance.fr/OuvragePrel/OPR0000199401
2012;Moret-Loing-et-Orvanne;77316;Seine-et-Marne;77;122733.0;EAU POTABLE;Mesure directe;2.83843667312661;48.35444730072483;Contrôlé Niveau 1;Correcte;False;MORET SUR LOING;{'type': 'Point', 'crs': {'type': 'name', 'properties': {'name': 'urn:ogc:def:crs:OGC:1.3:CRS84'}}, 'coordinates': [2.83843667312661, 48.35444730072483]};https://id.eaufrance.fr/OuvragePrel/OPR0000199402
2012;Cannes-Écluse;77061;Seine-et-Marne;77;383637.0;EAU POTABLE;Mesure directe;2.9922787499385937;48.36076654063385;Contrôlé Niveau 1;Correcte;False;CANNES ECLUSE/LES GRAVELOTTES  P2;{'type': 'Point', 'crs': {'type': 'name', 'properties': {'name': 'urn:ogc:def:crs:OGC:1.3:CRS84'}}, 'coordinates': [2.9922787499385937, 48.36076654063385]};https://id.eaufrance.fr/OuvragePrel/OPR0000199403
2012;Cannes-Écluse;77061;Seine-et-Marne;77;965619.0;EAU POTABLE;Mesure directe;2.9922787499385937;48.36076654063385;Contrôlé Niveau 1;Correcte;False;Cannes Ecluse 2 (Montereau Fault Yonne);{'type': 'Point', 'crs': {'type': 'name', 'properties': {'name': 'urn:ogc:def:crs:OGC:1.3:CRS84'}}, 'coordinates': [2.9922787499385937, 48.36076654063385]};https://id.eaufrance.fr/OuvragePrel/OPR0000199404
2012;Germigny-l'Évêque;77203;Seine-et-Marne;77;84952.0;EAU POTABLE;Mesure directe;2.953993058338205;48.98894222877762;Contrôlé Niveau 1;Correcte;False;COMMUNE DE GEMIGNY L'EVEQUE;{'type': 'Point', 'crs': {'type': 'name', 'properties': {'name': 'urn:ogc:def:crs:OGC:1.3:CRS84'}}, 'coordinates': [2.953993058338205, 48.988942228777624]};https://id.eaufrance.fr/OuvragePrel/OPR0000199405
2012;Provins;77379;Seine-et-Marne;77;8208.0;EAU POTABLE;Mesure directe;3.28056576404708;48.562915359870914;Contrôlé Niveau 1;Correcte;False;PROVINS - USINE RTE DE NANTEUIL (Secours);{'type': 'Point', 'crs': {'type': 'name', 'properties': {'name': 'urn:ogc:def:crs:OGC:1.3:CRS84'}}, 'coordinates': [3.28056576404708, 48.562915359870914]};https://id.eaufrance.fr/OuvragePrel/OPR0000199406
2012;Saint-Martin-des-Champs;77423;Seine-et-Marne;77;195794.0;EAU POTABLE;Mesure directe;3.329035553893548;48.7837450420933;Contrôlé Niveau 1;Correcte;False;PUITS DE ST MARTIN DES CHAMPS;{'type': 'Point', 'crs': {'type': 'name', 'properties': {'name': 'urn:ogc:def:crs:OGC:1.3:CRS84'}}, 'coordinates': [3.329035553893548, 48.7837450420933]};https://id.eaufrance.fr/OuvragePrel/OPR0000199407
2012;Savins;77446;Seine-et-Marne;77;117345.0;EAU POTABLE;Mesure directe;3.206217561249951;48.50958269996591;Contrôlé Niveau 1;Correcte;False;STATION DE SAVINS;{'type': 'Point', 'crs': {'type': 'name', 'properties': {'name': 'urn:ogc:def:crs:OGC:1.3:CRS84'}}, 'coordinates': [3.206217561249951, 48.50958269996591]};https://id.eaufrance.fr/OuvragePrel/OPR0000199408
2012;Boissise-la-Bertrand;77039;Seine-et-Marne;77;343880.0;EAU POTABLE;Mesure directe;2.5932403636261405;48.53194910472847;Contrôlé Niveau 1;Correcte;False;Rés aglo Melun F1 les friches;{'type': 'Point', 'crs': {'type': 'name', 'properties': {'name': 'urn:ogc:def:crs:OGC:1.3:CRS84'}}, 'coordinates': [2.5932403636261405, 48.53194910472847]};https://id.eaufrance.fr/OuvragePrel/OPR0000199410
2012;Boissise-la-Bertrand;77039;Seine-et-Marne;77;454997.0;EAU POTABLE;Mesure directe;2.5932403636261405;48.53194910472847;Contrôlé Niveau 1;Correcte;False;Rés aglo Melun F3 Bois St Jean;{'type': 'Point', 'crs': {'type': 'name', 'properties': {'name': 'urn:ogc:def:crs:OGC:1.3:CRS84'}}, 'coordinates': [2.5932403636261405, 48.53194910472847]};https://id.eaufrance.fr/OuvragePrel/OPR0000199411
2012;Boissise-la-Bertrand;77039;Seine-et-Marne;77;800829.0;EAU POTABLE;Mesure directe;2.5932403636261405;48.53194910472847;Contrôlé Niveau 1;Correcte;False;Res aglo Melun F2 Les Uselles;{'type': 'Point', 'crs': {'type': 'name', 'properties': {'name': 'urn:ogc:def:crs:OGC:1.3:CRS84'}}, 'coordinates': [2.5932403636261405, 48.53194910472847]};https://id.eaufrance.fr/OuvragePrel/OPR0000199412
2012;Boissise-la-Bertrand;77039;Seine-et-Marne;77;7321.0;EAU POTABLE;Mesure directe;2.5932403636261405;48.53194910472847;Contrôlé Niveau 1;Correcte;False;Res aglo Melun F4 L'Anglée;{'type': 'Point', 'crs': {'type': 'name', 'properties': {'name': 'urn:ogc:def:crs:OGC:1.3:CRS84'}}, 'coordinates': [2.5932403636261405, 48.53194910472847]};https://id.eaufrance.fr/OuvragePrel/OPR0000199413
2012;Trilbardou;77474;Seine-et-Marne;77;9759304.0;CANAUX;Mesure directe;2.797254342254971;48.94833271800746;Contrôlé Niveau 1;Correcte;False;Trilbardou - Canal de l'Ourcq   (Canal de l'Ourcq);{'type': 'Point', 'crs': {'type': 'name', 'properties': {'name': 'urn:ogc:def:crs:OGC:1.3:CRS84'}}, 'coordinates': [2.797254342254971, 48.94833271800746]};https://id.eaufrance.fr/OuvragePrel/OPR0000199438
2012;Vernou-la-Celle-sur-Seine;77494;Seine-et-Marne;77;16381.0;EAU POTABLE;Mesure directe;2.8488305142199746;48.40576133359555;Contrôlé Niveau 1;Correcte;False;VERNOU LA CELLE SUR SEINE;{'type': 'Point', 'crs': {'type': 'name', 'properties': {'name': 'urn:ogc:def:crs:OGC:1.3:CRS84'}}, 'coordinates': [2.8488305142199746, 48.40576133359555]};https://id.eaufrance.fr/OuvragePrel/OPR0000199488
2012;Courchamp;77134;Seine-et-Marne;77;35196.0;EAU POTABLE;Mesure directe;3.2911574877455303;48.64272462610244;Contrôlé Niveau 1;Correcte;False;COURCHAMP;{'type': 'Point', 'crs': {'type': 'name', 'properties': {'name': 'urn:ogc:def:crs:OGC:1.3:CRS84'}}, 'coordinates': [3.2911574877455303, 48.642724626102435]};https://id.eaufrance.fr/OuvragePrel/OPR0000199568
2012;Tournan-en-Brie;77470;Seine-et-Marne;77;12105.0;INDUSTRIE et ACTIVITES ECONOMIQUES (hors irrigation, hors énergie);Mesure directe;2.749855258458755;48.74878945288194;Contrôlé Niveau 1;Correcte;False;SCI TOURNAN;{'type': 'Point', 'crs': {'type': 'name', 'properties': {'name': 'urn:ogc:def:crs:OGC:1.3:CRS84'}}, 'coordinates': [2.749855258458755, 48.748789452881944]};https://id.eaufrance.fr/OuvragePrel/OPR0000199573
2012;Lorrez-le-Bocage-Préaux;77261;Seine-et-Marne;77;2121.0;IRRIGATION;Mesure directe;2.8780033736839377;48.23561724066612;Contrôlé Niveau 1;Correcte;False;GAEC RECONNU COLLUMEAU;{'type': 'Point', 'crs': {'type': 'name', 'properties': {'name': 'urn:ogc:def:crs:OGC:1.3:CRS84'}}, 'coordinates': [2.8780033736839377, 48.235617240666116]};https://id.eaufrance.fr/OuvragePrel/OPR0000199608
2012;Crouy-sur-Ourcq;77148;Seine-et-Marne;77;38680.0;IRRIGATION;Mesure directe;3.0634693225165326;49.09132287367311;Contrôlé Niveau 1;Correcte;False;EARL PETIT LIXON;{'type': 'Point', 'crs': {'type': 'name', 'properties': {'name': 'urn:ogc:def:crs:OGC:1.3:CRS84'}}, 'coordinates': [3.0634693225165326, 49.09132287367311]};https://id.eaufrance.fr/OuvragePrel/OPR0000199609
2012;Mousseaux-lès-Bray;77321;Seine-et-Marne;77;11200.0;IRRIGATION;Mesure directe;3.2201324113102414;48.414302469251126;Contrôlé Niveau 1;Correcte;False;GAEC LES JARDINS DU GRAND CLOS;{'type': 'Point', 'crs': {'type': 'name', 'properties': {'name': 'urn:ogc:def:crs:OGC:1.3:CRS84'}}, 'coordinates': [3.2201324113102414, 48.414302469251126]};https://id.eaufrance.fr/OuvragePrel/OPR0000199610
2012;Arville;77009;Seine-et-Marne;77;105263.0;IRRIGATION;Mesure directe;2.551672874959126;48.18681663520183;Contrôlé Niveau 1;Correcte;False;Arville;{'type': 'Point', 'crs': {'type': 'name', 'properties': {'name': 'urn:ogc:def:crs:OGC:1.3:CRS84'}}, 'coordinates': [2.551672874959126, 48.18681663520183]};https://id.eaufrance.fr/OuvragePrel/OPR0000199676
2012;Rumont;77395;Seine-et-Marne;77;42970.0;IRRIGATION;Mesure directe;2.4807864578821786;48.262001082675546;Contrôlé Niveau 1;Correcte;False;ASAI DE FROMONT RUMONT;{'type': 'Point', 'crs': {'type': 'name', 'properties': {'name': 'urn:ogc:def:crs:OGC:1.3:CRS84'}}, 'coordinates': [2.4807864578821786, 48.262001082675546]};https://id.eaufrance.fr/OuvragePrel/OPR0000199678
2012;Villemer;77506;Seine-et-Marne;77;80320.0;IRRIGATION;Mesure directe;2.8231465344929383;48.30391985772099;Contrôlé Niveau 1;Correcte;False;EARL DE MONTMERY;{'type': 'Point', 'crs': {'type': 'name', 'properties': {'name': 'urn:ogc:def:crs:OGC:1.3:CRS84'}}, 'coordinates': [2.8231465344929383, 48.30391985772099]};https://id.eaufrance.fr/OuvragePrel/OPR0000199680
2012;Rumont;77395;Seine-et-Marne;77;61135.0;IRRIGATION;Mesure directe;2.4777324255119537;48.27103031365299;Contrôlé Niveau 1;Correcte;False;CUMA DU PAS ST MARTIN;{'type': 'Point', 'crs': {'type': 'name', 'properties': {'name': 'urn:ogc:def:crs:OGC:1.3:CRS84'}}, 'coordinates': [2.4777324255119537, 48.27103031365299]};https://id.eaufrance.fr/OuvragePrel/OPR0000199682
2012;Messy;77292;Seine-et-Marne;77;22826.0;IRRIGATION;Mesure directe;2.7032373586865392;48.96794719119213;Contrôlé Niveau 1;Correcte;False;EARL DU PILOUVET;{'type': 'Point', 'crs': {'type': 'name', 'properties': {'name': 'urn:ogc:def:crs:OGC:1.3:CRS84'}}, 'coordinates': [2.7032373586865392, 48.96794719119213]};https://id.eaufrance.fr/OuvragePrel/OPR0000199687
2012;Montcourt-Fromonville;77302;Seine-et-Marne;77;43000.0;IRRIGATION;Mesure directe;2.705646180015541;48.29385185415097;Contrôlé Niveau 1;Correcte;False;M. BOCCIARELLI ERIC;{'type': 'Point', 'crs': {'type': 'name', 'properties': {'name': 'urn:ogc:def:crs:OGC:1.3:CRS84'}}, 'coordinates': [2.705646180015541, 48.29385185415097]};https://id.eaufrance.fr/OuvragePrel/OPR0000199691
2012;Beaumont-du-Gâtinais;77027;Seine-et-Marne;77;46663.0;IRRIGATION;Mesure directe;2.492751918222948;48.13320901999711;Contrôlé Niveau 1;Correcte;False;EARL DES ORMEAUX;{'type': 'Point', 'crs': {'type': 'name', 'properties': {'name': 'urn:ogc:def:crs:OGC:1.3:CRS84'}}, 'coordinates': [2.492751918222948, 48.13320901999711]};https://id.eaufrance.fr/OuvragePrel/OPR0000199692
2012;Villiers-Saint-Georges;77519;Seine-et-Marne;77;16300.0;IRRIGATION;Mesure directe;3.362082268492223;48.625617793610125;Contrôlé Niveau 1;Correcte;False;EARL LATINOIS PARENT;{'type': 'Point', 'crs': {'type': 'name', 'properties': {'name': 'urn:ogc:def:crs:OGC:1.3:CRS84'}}, 'coordinates': [3.362082268492223, 48.625617793610125]};https://id.eaufrance.fr/OuvragePrel/OPR0000199702
2012;Nemours;77333;Seine-et-Marne;77;24086357.0;CANAUX;Mesure directe;2.695321900948919;48.27217784582383;Contrôlé Niveau 1;Correcte;False;C. Loing PE Fromonville e Fromonville;{'type': 'Point', 'crs': {'type': 'name', 'properties': {'name': 'urn:ogc:def:crs:OGC:1.3:CRS84'}}, 'coordinates': [2.695321900948919, 48.272177845823826]};https://id.eaufrance.fr/OuvragePrel/OPR0000199853
2012;Oissery;77344;Seine-et-Marne;77;18150.0;IRRIGATION;Mesure directe;2.810914079888208;49.06286809353207;Contrôlé Niveau 1;Correcte;False;SCEA FERME DE CONDE;{'type': 'Point', 'crs': {'type': 'name', 'properties': {'name': 'urn:ogc:def:crs:OGC:1.3:CRS84'}}, 'coordinates': [2.810914079888208, 49.06286809353207]};https://id.eaufrance.fr/OuvragePrel/OPR0000200130
2012;Beaumont-du-Gâtinais;77027;Seine-et-Marne;77;5410.0;IRRIGATION;Mesure directe;2.5259570248080627;48.141976660703214;Contrôlé Niveau 1;Correcte;False;forage les longs réages ZM 4 Beaumont du Gatinais;{'type': 'Point', 'crs': {'type': 'name', 'properties': {'name': 'urn:ogc:def:crs:OGC:1.3:CRS84'}}, 'coordinates': [2.5259570248080627, 48.141976660703214]};https://id.eaufrance.fr/OuvragePrel/OPR0000549043
2012;Mousseaux-lès-Bray;77321;Seine-et-Marne;77;1790.0;IRRIGATION;Mesure directe;3.2206752416014286;48.414841253383095;Contrôlé Niveau 1;Correcte;False;GAEC LES JARDINS DU GRAND CLOS;{'type': 'Point', 'crs': {'type': 'name', 'properties': {'name': 'urn:ogc:def:crs:OGC:1.3:CRS84'}}, 'coordinates': [3.2206752416014286, 48.414841253383095]};https://id.eaufrance.fr/OuvragePrel/OPR0000586243
2012;Thénisy;77461;Seine-et-Marne;77;3790.0;IRRIGATION;Mesure directe;3.1789649479552318;48.49274718683088;Contrôlé Niveau 1;Correcte;False;EARL CHAILLOIS-GAME;{'type': 'Point', 'crs': {'type': 'name', 'properties': {'name': 'urn:ogc:def:crs:OGC:1.3:CRS84'}}, 'coordinates': [3.1789649479552313, 48.49274718683088]};https://id.eaufrance.fr/OuvragePrel/OPR0000598433
2012;Mousseaux-lès-Bray;77321;Seine-et-Marne;77;2440.0;IRRIGATION;Mesure directe;3.2179965854707784;48.41416246908511;Contrôlé Niveau 1;Correcte;False;GAEC LES JARDINS DU GRAND CLOS;{'type': 'Point', 'crs': {'type': 'name', 'properties': {'name': 'urn:ogc:def:crs:OGC:1.3:CRS84'}}, 'coordinates': [3.2179965854707784, 48.414162469085106]};https://id.eaufrance.fr/OuvragePrel/OPR0000613933
2012;Mousseaux-lès-Bray;77321;Seine-et-Marne;77;235.0;IRRIGATION;Mesure directe;3.2211515349704976;48.41241129691946;Contrôlé Niveau 1;Correcte;False;M BOURLIER PATRICK;{'type': 'Point', 'crs': {'type': 'name', 'properties': {'name': 'urn:ogc:def:crs:OGC:1.3:CRS84'}}, 'coordinates': [3.2211515349704976, 48.41241129691946]};https://id.eaufrance.fr/OuvragePrel/OPR0000629058
2012;Saint-Mammès;77419;Seine-et-Marne;77;122733.0;EAU POTABLE;Mesure directe;2.8199877031246925;48.386572248222194;Contrôlé Niveau 1;Correcte;False;District Moret P2 Grosbois;{'type': 'Point', 'crs': {'type': 'name', 'properties': {'name': 'urn:ogc:def:crs:OGC:1.3:CRS84'}}, 'coordinates': [2.8199877031246925, 48.386572248222194]};https://id.eaufrance.fr/OuvragePrel/OPR0000629174
2012;Boissise-la-Bertrand;77039;Seine-et-Marne;77;3886246.0;EAU POTABLE;Mesure directe;2.5932403636261405;48.53194910472847;Contrôlé Niveau 1;Correcte;False;COMMUNE DE BOISSISE LA BERTRAND;{'type': 'Point', 'crs': {'type': 'name', 'properties': {'name': 'urn:ogc:def:crs:OGC:1.3:CRS84'}}, 'coordinates': [2.5932403636261405, 48.53194910472847]};https://id.eaufrance.fr/OuvragePrel/OPR0000629361
2012;Boissise-la-Bertrand;77039;Seine-et-Marne;77;3919620.0;EAU POTABLE;Mesure directe;2.5932403636261405;48.53194910472847;Contrôlé Niveau 1;Correcte;False;COMMUNE DE BOISSISE LA BERTRAND;{'type': 'Point', 'crs': {'type': 'name', 'properties': {'name': 'urn:ogc:def:crs:OGC:1.3:CRS84'}}, 'coordinates': [2.5932403636261405, 48.53194910472847]};https://id.eaufrance.fr/OuvragePrel/OPR0000629362
2012;Mousseaux-lès-Bray;77321;Seine-et-Marne;77;78.0;IRRIGATION;Mesure directe;3.2194124460670954;48.41341314466872;Contrôlé Niveau 1;Correcte;False;M BOURLIER PATRICK;{'type': 'Point', 'crs': {'type': 'name', 'properties': {'name': 'urn:ogc:def:crs:OGC:1.3:CRS84'}}, 'coordinates': [3.2194124460670954, 48.41341314466872]};https://id.eaufrance.fr/OuvragePrel/OPR0000629363
2013;Armentières-en-Brie;77008;Seine-et-Marne;77;53302.0;EAU POTABLE;Mesure directe;3.0260692652692374;48.977386160938096;Contrôlé Niveau 1;Correcte;False;ARMENTIERES EN BRIE;{'type': 'Point', 'crs': {'type': 'name', 'properties': {'name': 'urn:ogc:def:crs:OGC:1.3:CRS84'}}, 'coordinates': [3.0260692652692374, 48.977386160938096]};https://id.eaufrance.fr/OuvragePrel/OPR0000032761
2013;Juilly;77241;Seine-et-Marne;77;94151.0;EAU POTABLE;Mesure directe;2.702269324347424;49.02147348322048;Contrôlé Niveau 1;Correcte;False;JUILLY;{'type': 'Point', 'crs': {'type': 'name', 'properties': {'name': 'urn:ogc:def:crs:OGC:1.3:CRS84'}}, 'coordinates': [2.702269324347424, 49.021473483220475]};https://id.eaufrance.fr/OuvragePrel/OPR0000032763
2013;Moussy-le-Vieux;77323;Seine-et-Marne;77;107723.0;EAU POTABLE;Mesure directe;2.622225933867089;49.04804311887866;Contrôlé Niveau 1;Correcte;False;MOUSSY LE VIEUX;{'type': 'Point', 'crs': {'type': 'name', 'properties': {'name': 'urn:ogc:def:crs:OGC:1.3:CRS84'}}, 'coordinates': [2.622225933867089, 49.04804311887866]};https://id.eaufrance.fr/OuvragePrel/OPR0000032804
2013;Dammartin-en-Goële;77153;Seine-et-Marne;77;50005.0;EAU POTABLE;Mesure directe;2.686983023240134;49.05042313677535;Contrôlé Niveau 1;Correcte;False;DAMMARTIN EN GOELE;{'type': 'Point', 'crs': {'type': 'name', 'properties': {'name': 'urn:ogc:def:crs:OGC:1.3:CRS84'}}, 'coordinates': [2.686983023240134, 49.05042313677535]};https://id.eaufrance.fr/OuvragePrel/OPR0000032806
2013;Rouvres;77392;Seine-et-Marne;77;29817.0;EAU POTABLE;Mesure directe;2.719774484911691;49.0656840713018;Contrôlé Niveau 1;Correcte;False;Rouvres;{'type': 'Point', 'crs': {'type': 'name', 'properties': {'name': 'urn:ogc:def:crs:OGC:1.3:CRS84'}}, 'coordinates': [2.719774484911691, 49.0656840713018]};https://id.eaufrance.fr/OuvragePrel/OPR0000032809
2013;Château-Landon;77099;Seine-et-Marne;77;49344.0;EAU POTABLE;Mesure directe;2.7104486461381123;48.14911142979006;Contrôlé Niveau 1;Correcte;False;CHATEAU LANDON;{'type': 'Point', 'crs': {'type': 'name', 'properties': {'name': 'urn:ogc:def:crs:OGC:1.3:CRS84'}}, 'coordinates': [2.7104486461381123, 48.14911142979006]};https://id.eaufrance.fr/OuvragePrel/OPR0000032812
2013;Château-Landon;77099;Seine-et-Marne;77;356417.0;EAU POTABLE;Mesure directe;2.7104486461381123;48.14911142979006;Contrôlé Niveau 1;Correcte;False;CHATEAU LANDON;{'type': 'Point', 'crs': {'type': 'name', 'properties': {'name': 'urn:ogc:def:crs:OGC:1.3:CRS84'}}, 'coordinates': [2.7104486461381123, 48.14911142979006]};https://id.eaufrance.fr/OuvragePrel/OPR0000032838
2013;Lesches;77248;Seine-et-Marne;77;23839.0;EAU POTABLE;Mesure directe;2.7958772893888577;48.91725554740611;Contrôlé Niveau 1;Correcte;False;LESCHES;{'type': 'Point', 'crs': {'type': 'name', 'properties': {'name': 'urn:ogc:def:crs:OGC:1.3:CRS84'}}, 'coordinates': [2.7958772893888577, 48.91725554740611]};https://id.eaufrance.fr/OuvragePrel/OPR0000033298
2013;Bransles;77050;Seine-et-Marne;77;38423.0;EAU POTABLE;Mesure directe;2.8298875077781647;48.14810091426715;Contrôlé Niveau 1;Correcte;False;BRANSLES;{'type': 'Point', 'crs': {'type': 'name', 'properties': {'name': 'urn:ogc:def:crs:OGC:1.3:CRS84'}}, 'coordinates': [2.8298875077781647, 48.14810091426715]};https://id.eaufrance.fr/OuvragePrel/OPR0000033300
2013;Verdelot;77492;Seine-et-Marne;77;122185.0;EAU POTABLE;Mesure directe;3.362008600675816;48.882944630194665;Contrôlé Niveau 1;Correcte;False;VERDELOT;{'type': 'Point', 'crs': {'type': 'name', 'properties': {'name': 'urn:ogc:def:crs:OGC:1.3:CRS84'}}, 'coordinates': [3.362008600675816, 48.882944630194665]};https://id.eaufrance.fr/OuvragePrel/OPR0000033400
2013;Verdelot;77492;Seine-et-Marne;77;122185.0;EAU POTABLE;Mesure directe;3.362008600675816;48.882944630194665;Contrôlé Niveau 1;Correcte;False;VERDELOT;{'type': 'Point', 'crs': {'type': 'name', 'properties': {'name': 'urn:ogc:def:crs:OGC:1.3:CRS84'}}, 'coordinates': [3.362008600675816, 48.882944630194665]};https://id.eaufrance.fr/OuvragePrel/OPR0000033401
2013;Beautheil;77028;Seine-et-Marne;77;360531.0;EAU POTABLE;Mesure directe;;;Contrôlé Niveau 1;Correcte;False;BEAUTHEIL;;https://id.eaufrance.fr/OuvragePrel/OPR0000033409
2013;Mitry-Mory;77294;Seine-et-Marne;77;449544.0;EAU POTABLE;Mesure directe;2.616859294562238;48.97959575942737;Contrôlé Niveau 1;Correcte;False;MITRY MORY;{'type': 'Point', 'crs': {'type': 'name', 'properties': {'name': 'urn:ogc:def:crs:OGC:1.3:CRS84'}}, 'coordinates': [2.616859294562238, 48.97959575942737]};https://id.eaufrance.fr/OuvragePrel/OPR0000033461
2013;Mitry-Mory;77294;Seine-et-Marne;77;410923.0;EAU POTABLE;Mesure directe;2.616859294562238;48.97959575942737;Contrôlé Niveau 1;Correcte;False;MITRY MORY;{'type': 'Point', 'crs': {'type': 'name', 'properties': {'name': 'urn:ogc:def:crs:OGC:1.3:CRS84'}}, 'coordinates': [2.616859294562238, 48.97959575942737]};https://id.eaufrance.fr/OuvragePrel/OPR0000033462
2013;Chaumes-en-Brie;77107;Seine-et-Marne;77;80653.0;EAU POTABLE;Mesure directe;2.8476507152665542;48.66333903483039;Contrôlé Niveau 1;Correcte;False;CHAUMES EN BRIE;{'type': 'Point', 'crs': {'type': 'name', 'properties': {'name': 'urn:ogc:def:crs:OGC:1.3:CRS84'}}, 'coordinates': [2.8476507152665542, 48.663339034830386]};https://id.eaufrance.fr/OuvragePrel/OPR0000033571
2013;Chaumes-en-Brie;77107;Seine-et-Marne;77;57505.0;EAU POTABLE;Mesure directe;2.8476507152665542;48.66333903483039;Contrôlé Niveau 1;Correcte;False;CHAUMES EN BRIE;{'type': 'Point', 'crs': {'type': 'name', 'properties': {'name': 'urn:ogc:def:crs:OGC:1.3:CRS84'}}, 'coordinates': [2.8476507152665542, 48.663339034830386]};https://id.eaufrance.fr/OuvragePrel/OPR0000033578
2013;Bernay-Vilbert;77031;Seine-et-Marne;77;53019.0;EAU POTABLE;Mesure directe;2.930742363361153;48.67719717949668;Contrôlé Niveau 1;Correcte;False;BERNAY VILBERT;{'type': 'Point', 'crs': {'type': 'name', 'properties': {'name': 'urn:ogc:def:crs:OGC:1.3:CRS84'}}, 'coordinates': [2.930742363361153, 48.67719717949668]};https://id.eaufrance.fr/OuvragePrel/OPR0000033579
2013;Saint-Pierre-lès-Nemours;77431;Seine-et-Marne;77;171590.0;EAU POTABLE;Mesure directe;2.660027664360549;48.26459486835108;Contrôlé Niveau 1;Correcte;False;Source de la Joie;{'type': 'Point', 'crs': {'type': 'name', 'properties': {'name': 'urn:ogc:def:crs:OGC:1.3:CRS84'}}, 'coordinates': [2.660027664360549, 48.26459486835108]};https://id.eaufrance.fr/OuvragePrel/OPR0000033595
2013;Saint-Pierre-lès-Nemours;77431;Seine-et-Marne;77;149202.0;EAU POTABLE;Mesure directe;2.660027664360549;48.26459486835108;Contrôlé Niveau 1;Correcte;False;Source de Chaintréauville;{'type': 'Point', 'crs': {'type': 'name', 'properties': {'name': 'urn:ogc:def:crs:OGC:1.3:CRS84'}}, 'coordinates': [2.660027664360549, 48.26459486835108]};https://id.eaufrance.fr/OuvragePrel/OPR0000033596
2013;Nemours;77333;Seine-et-Marne;77;254837.0;EAU POTABLE;Mesure directe;2.708110920450242;48.26327900260985;Contrôlé Niveau 1;Correcte;False;NEMOURS;{'type': 'Point', 'crs': {'type': 'name', 'properties': {'name': 'urn:ogc:def:crs:OGC:1.3:CRS84'}}, 'coordinates': [2.708110920450242, 48.26327900260985]};https://id.eaufrance.fr/OuvragePrel/OPR0000033597
2013;Genevraye;77202;Seine-et-Marne;77;179043.0;EAU POTABLE;Mesure directe;2.750389353968991;48.31644353341717;Contrôlé Niveau 1;Correcte;False;Puits de Coignet;{'type': 'Point', 'crs': {'type': 'name', 'properties': {'name': 'urn:ogc:def:crs:OGC:1.3:CRS84'}}, 'coordinates': [2.750389353968991, 48.31644353341717]};https://id.eaufrance.fr/OuvragePrel/OPR0000033598
2013;Genevraye;77202;Seine-et-Marne;77;179043.0;EAU POTABLE;Mesure directe;2.750389353968991;48.31644353341717;Contrôlé Niveau 1;Correcte;False;Fontaine Saint-Thomas;{'type': 'Point', 'crs': {'type': 'name', 'properties': {'name': 'urn:ogc:def:crs:OGC:1.3:CRS84'}}, 'coordinates': [2.750389353968991, 48.31644353341717]};https://id.eaufrance.fr/OuvragePrel/OPR0000033599
2013;Villemer;77506;Seine-et-Marne;77;1415311.0;EAU POTABLE;Mesure directe;2.831772662535252;48.30149820725005;Contrôlé Niveau 1;Correcte;False;Galerie captante;{'type': 'Point', 'crs': {'type': 'name', 'properties': {'name': 'urn:ogc:def:crs:OGC:1.3:CRS84'}}, 'coordinates': [2.831772662535252, 48.30149820725005]};https://id.eaufrance.fr/OuvragePrel/OPR0000033600
2013;Bourron-Marlotte;77048;Seine-et-Marne;77;208883.0;EAU POTABLE;Mesure directe;2.6963549000718;48.3364458992268;Contrôlé Niveau 1;Correcte;False;Forage du Bignon de Bourron;{'type': 'Point', 'crs': {'type': 'name', 'properties': {'name': 'urn:ogc:def:crs:OGC:1.3:CRS84'}}, 'coordinates': [2.6963549000717997, 48.3364458992268]};https://id.eaufrance.fr/OuvragePrel/OPR0000033601
2013;Bourron-Marlotte;77048;Seine-et-Marne;77;179043.0;EAU POTABLE;Mesure directe;2.6963549000718;48.3364458992268;Contrôlé Niveau 1;Correcte;False;Forage du Bignon de Bourron;{'type': 'Point', 'crs': {'type': 'name', 'properties': {'name': 'urn:ogc:def:crs:OGC:1.3:CRS84'}}, 'coordinates': [2.6963549000717997, 48.3364458992268]};https://id.eaufrance.fr/OuvragePrel/OPR0000033602
2013;Bourron-Marlotte;77048;Seine-et-Marne;77;179043.0;EAU POTABLE;Mesure directe;2.6963549000718;48.3364458992268;Contrôlé Niveau 1;Correcte;False;Forage du Bignon de Bourron;{'type': 'Point', 'crs': {'type': 'name', 'properties': {'name': 'urn:ogc:def:crs:OGC:1.3:CRS84'}}, 'coordinates': [2.6963549000717997, 48.3364458992268]};https://id.eaufrance.fr/OuvragePrel/OPR0000033603
2013;Bourron-Marlotte;77048;Seine-et-Marne;77;179043.0;EAU POTABLE;Mesure directe;2.6963549000718;48.3364458992268;Contrôlé Niveau 1;Correcte;False;Forage du Bignon de Bourron;{'type': 'Point', 'crs': {'type': 'name', 'properties': {'name': 'urn:ogc:def:crs:OGC:1.3:CRS84'}}, 'coordinates': [2.6963549000717997, 48.3364458992268]};https://id.eaufrance.fr/OuvragePrel/OPR0000033604
2013;Bourron-Marlotte;77048;Seine-et-Marne;77;179043.0;EAU POTABLE;Mesure directe;2.6963549000718;48.3364458992268;Contrôlé Niveau 1;Correcte;False;Forage du Bignon de Bourron;{'type': 'Point', 'crs': {'type': 'name', 'properties': {'name': 'urn:ogc:def:crs:OGC:1.3:CRS84'}}, 'coordinates': [2.6963549000717997, 48.3364458992268]};https://id.eaufrance.fr/OuvragePrel/OPR0000033605
2013;Bourron-Marlotte;77048;Seine-et-Marne;77;179043.0;EAU POTABLE;Mesure directe;2.6963549000718;48.3364458992268;Contrôlé Niveau 1;Correcte;False;Forage du Bignon de Bourron;{'type': 'Point', 'crs': {'type': 'name', 'properties': {'name': 'urn:ogc:def:crs:OGC:1.3:CRS84'}}, 'coordinates': [2.6963549000717997, 48.3364458992268]};https://id.eaufrance.fr/OuvragePrel/OPR0000033606
2013;Bourron-Marlotte;77048;Seine-et-Marne;77;179043.0;EAU POTABLE;Mesure directe;2.6963549000718;48.3364458992268;Contrôlé Niveau 1;Correcte;False;Forage du Bignon de Bourron;{'type': 'Point', 'crs': {'type': 'name', 'properties': {'name': 'urn:ogc:def:crs:OGC:1.3:CRS84'}}, 'coordinates': [2.6963549000717997, 48.3364458992268]};https://id.eaufrance.fr/OuvragePrel/OPR0000033607
2013;Bourron-Marlotte;77048;Seine-et-Marne;77;179043.0;EAU POTABLE;Mesure directe;2.6963549000718;48.3364458992268;Contrôlé Niveau 1;Correcte;False;Forage de Sel;{'type': 'Point', 'crs': {'type': 'name', 'properties': {'name': 'urn:ogc:def:crs:OGC:1.3:CRS84'}}, 'coordinates': [2.6963549000717997, 48.3364458992268]};https://id.eaufrance.fr/OuvragePrel/OPR0000033608
2013;Bourron-Marlotte;77048;Seine-et-Marne;77;179043.0;EAU POTABLE;Mesure directe;2.6963549000718;48.3364458992268;Contrôlé Niveau 1;Correcte;False;Forage de Sel;{'type': 'Point', 'crs': {'type': 'name', 'properties': {'name': 'urn:ogc:def:crs:OGC:1.3:CRS84'}}, 'coordinates': [2.6963549000717997, 48.3364458992268]};https://id.eaufrance.fr/OuvragePrel/OPR0000033609
2013;Bourron-Marlotte;77048;Seine-et-Marne;77;179043.0;EAU POTABLE;Mesure directe;2.6963549000718;48.3364458992268;Contrôlé Niveau 1;Correcte;False;Forage de Sel;{'type': 'Point', 'crs': {'type': 'name', 'properties': {'name': 'urn:ogc:def:crs:OGC:1.3:CRS84'}}, 'coordinates': [2.6963549000717997, 48.3364458992268]};https://id.eaufrance.fr/OuvragePrel/OPR0000033610
2013;Bourron-Marlotte;77048;Seine-et-Marne;77;179043.0;EAU POTABLE;Mesure directe;2.6963549000718;48.3364458992268;Contrôlé Niveau 1;Correcte;False;Forage de Sel;{'type': 'Point', 'crs': {'type': 'name', 'properties': {'name': 'urn:ogc:def:crs:OGC:1.3:CRS84'}}, 'coordinates': [2.6963549000717997, 48.3364458992268]};https://id.eaufrance.fr/OuvragePrel/OPR0000033611
2013;Bourron-Marlotte;77048;Seine-et-Marne;77;179043.0;EAU POTABLE;Mesure directe;2.6963549000718;48.3364458992268;Contrôlé Niveau 1;Correcte;False;Forage de Sel;{'type': 'Point', 'crs': {'type': 'name', 'properties': {'name': 'urn:ogc:def:crs:OGC:1.3:CRS84'}}, 'coordinates': [2.6963549000717997, 48.3364458992268]};https://id.eaufrance.fr/OuvragePrel/OPR0000033612
2013;Bourron-Marlotte;77048;Seine-et-Marne;77;179043.0;EAU POTABLE;Mesure directe;2.6963549000718;48.3364458992268;Contrôlé Niveau 1;Correcte;False;Forage de Sel;{'type': 'Point', 'crs': {'type': 'name', 'properties': {'name': 'urn:ogc:def:crs:OGC:1.3:CRS84'}}, 'coordinates': [2.6963549000717997, 48.3364458992268]};https://id.eaufrance.fr/OuvragePrel/OPR0000033613
2013;Bourron-Marlotte;77048;Seine-et-Marne;77;179043.0;EAU POTABLE;Mesure directe;2.6963549000718;48.3364458992268;Contrôlé Niveau 1;Correcte;False;Forage de Sel;{'type': 'Point', 'crs': {'type': 'name', 'properties': {'name': 'urn:ogc:def:crs:OGC:1.3:CRS84'}}, 'coordinates': [2.6963549000717997, 48.3364458992268]};https://id.eaufrance.fr/OuvragePrel/OPR0000033614
2013;Bourron-Marlotte;77048;Seine-et-Marne;77;179043.0;EAU POTABLE;Mesure directe;2.6963549000718;48.3364458992268;Contrôlé Niveau 1;Correcte;False;Forage de Sel;{'type': 'Point', 'crs': {'type': 'name', 'properties': {'name': 'urn:ogc:def:crs:OGC:1.3:CRS84'}}, 'coordinates': [2.6963549000717997, 48.3364458992268]};https://id.eaufrance.fr/OuvragePrel/OPR0000033615
2013;Bourron-Marlotte;77048;Seine-et-Marne;77;179043.0;EAU POTABLE;Mesure directe;2.6963549000718;48.3364458992268;Contrôlé Niveau 1;Correcte;False;Forage de Sel;{'type': 'Point', 'crs': {'type': 'name', 'properties': {'name': 'urn:ogc:def:crs:OGC:1.3:CRS84'}}, 'coordinates': [2.6963549000717997, 48.3364458992268]};https://id.eaufrance.fr/OuvragePrel/OPR0000033616
2013;Bourron-Marlotte;77048;Seine-et-Marne;77;179043.0;EAU POTABLE;Mesure directe;2.6963549000718;48.3364458992268;Contrôlé Niveau 1;Correcte;False;Forage de Sel;{'type': 'Point', 'crs': {'type': 'name', 'properties': {'name': 'urn:ogc:def:crs:OGC:1.3:CRS84'}}, 'coordinates': [2.6963549000717997, 48.3364458992268]};https://id.eaufrance.fr/OuvragePrel/OPR0000033617
2013;Bourron-Marlotte;77048;Seine-et-Marne;77;179043.0;EAU POTABLE;Mesure directe;2.6963549000718;48.3364458992268;Contrôlé Niveau 1;Correcte;False;Forage de Sel;{'type': 'Point', 'crs': {'type': 'name', 'properties': {'name': 'urn:ogc:def:crs:OGC:1.3:CRS84'}}, 'coordinates': [2.6963549000717997, 48.3364458992268]};https://id.eaufrance.fr/OuvragePrel/OPR0000033618
2013;Bourron-Marlotte;77048;Seine-et-Marne;77;179043.0;EAU POTABLE;Mesure directe;2.6963549000718;48.3364458992268;Contrôlé Niveau 1;Correcte;False;Forage de Sel;{'type': 'Point', 'crs': {'type': 'name', 'properties': {'name': 'urn:ogc:def:crs:OGC:1.3:CRS84'}}, 'coordinates': [2.6963549000717997, 48.3364458992268]};https://id.eaufrance.fr/OuvragePrel/OPR0000033619
2013;Bourron-Marlotte;77048;Seine-et-Marne;77;179043.0;EAU POTABLE;Mesure directe;2.6963549000718;48.3364458992268;Contrôlé Niveau 1;Correcte;False;Nouveau forage;{'type': 'Point', 'crs': {'type': 'name', 'properties': {'name': 'urn:ogc:def:crs:OGC:1.3:CRS84'}}, 'coordinates': [2.6963549000717997, 48.3364458992268]};https://id.eaufrance.fr/OuvragePrel/OPR0000033620
2013;Bourron-Marlotte;77048;Seine-et-Marne;77;179043.0;EAU POTABLE;Mesure directe;2.6963549000718;48.3364458992268;Contrôlé Niveau 1;Correcte;False;Nouveau forage du Bignon;{'type': 'Point', 'crs': {'type': 'name', 'properties': {'name': 'urn:ogc:def:crs:OGC:1.3:CRS84'}}, 'coordinates': [2.6963549000717997, 48.3364458992268]};https://id.eaufrance.fr/OuvragePrel/OPR0000033621
2013;Bourron-Marlotte;77048;Seine-et-Marne;77;179043.0;EAU POTABLE;Mesure directe;2.6963549000718;48.3364458992268;Contrôlé Niveau 1;Correcte;False;Nouveau forage du Bignon;{'type': 'Point', 'crs': {'type': 'name', 'properties': {'name': 'urn:ogc:def:crs:OGC:1.3:CRS84'}}, 'coordinates': [2.6963549000717997, 48.3364458992268]};https://id.eaufrance.fr/OuvragePrel/OPR0000033622
2013;Bourron-Marlotte;77048;Seine-et-Marne;77;179043.0;EAU POTABLE;Mesure directe;2.6963549000718;48.3364458992268;Contrôlé Niveau 1;Correcte;False;Nouveau forage du Bignon;{'type': 'Point', 'crs': {'type': 'name', 'properties': {'name': 'urn:ogc:def:crs:OGC:1.3:CRS84'}}, 'coordinates': [2.6963549000717997, 48.3364458992268]};https://id.eaufrance.fr/OuvragePrel/OPR0000033623
2013;Bourron-Marlotte;77048;Seine-et-Marne;77;179043.0;EAU POTABLE;Mesure directe;2.6963549000718;48.3364458992268;Contrôlé Niveau 1;Correcte;False;Nouveau forage du Bignon;{'type': 'Point', 'crs': {'type': 'name', 'properties': {'name': 'urn:ogc:def:crs:OGC:1.3:CRS84'}}, 'coordinates': [2.6963549000717997, 48.3364458992268]};https://id.eaufrance.fr/OuvragePrel/OPR0000033624
2013;Bourron-Marlotte;77048;Seine-et-Marne;77;179043.0;EAU POTABLE;Mesure directe;2.6963549000718;48.3364458992268;Contrôlé Niveau 1;Correcte;False;Nouveau forage du Bignon;{'type': 'Point', 'crs': {'type': 'name', 'properties': {'name': 'urn:ogc:def:crs:OGC:1.3:CRS84'}}, 'coordinates': [2.6963549000717997, 48.3364458992268]};https://id.eaufrance.fr/OuvragePrel/OPR0000033625
2013;Bourron-Marlotte;77048;Seine-et-Marne;77;179043.0;EAU POTABLE;Mesure directe;2.6963549000718;48.3364458992268;Contrôlé Niveau 1;Correcte;False;Nouveau forage du Bignon;{'type': 'Point', 'crs': {'type': 'name', 'properties': {'name': 'urn:ogc:def:crs:OGC:1.3:CRS84'}}, 'coordinates': [2.6963549000717997, 48.3364458992268]};https://id.eaufrance.fr/OuvragePrel/OPR0000033626
2013;Bourron-Marlotte;77048;Seine-et-Marne;77;179043.0;EAU POTABLE;Mesure directe;2.6963549000718;48.3364458992268;Contrôlé Niveau 1;Correcte;False;Nouveau forage du Bignon;{'type': 'Point', 'crs': {'type': 'name', 'properties': {'name': 'urn:ogc:def:crs:OGC:1.3:CRS84'}}, 'coordinates': [2.6963549000717997, 48.3364458992268]};https://id.eaufrance.fr/OuvragePrel/OPR0000033627
2013;Bourron-Marlotte;77048;Seine-et-Marne;77;179043.0;EAU POTABLE;Mesure directe;2.6963549000718;48.3364458992268;Contrôlé Niveau 1;Correcte;False;Nouveau forage du Bignon;{'type': 'Point', 'crs': {'type': 'name', 'properties': {'name': 'urn:ogc:def:crs:OGC:1.3:CRS84'}}, 'coordinates': [2.6963549000717997, 48.3364458992268]};https://id.eaufrance.fr/OuvragePrel/OPR0000033628
2013;Bourron-Marlotte;77048;Seine-et-Marne;77;179043.0;EAU POTABLE;Mesure directe;2.6963549000718;48.3364458992268;Contrôlé Niveau 1;Correcte;False;Nouveau forage du Bignon;{'type': 'Point', 'crs': {'type': 'name', 'properties': {'name': 'urn:ogc:def:crs:OGC:1.3:CRS84'}}, 'coordinates': [2.6963549000717997, 48.3364458992268]};https://id.eaufrance.fr/OuvragePrel/OPR0000033629
2013;Bourron-Marlotte;77048;Seine-et-Marne;77;179043.0;EAU POTABLE;Mesure directe;2.6963549000718;48.3364458992268;Contrôlé Niveau 1;Correcte;False;Nouveau forage du Bignon;{'type': 'Point', 'crs': {'type': 'name', 'properties': {'name': 'urn:ogc:def:crs:OGC:1.3:CRS84'}}, 'coordinates': [2.6963549000717997, 48.3364458992268]};https://id.eaufrance.fr/OuvragePrel/OPR0000033630
2013;Bourron-Marlotte;77048;Seine-et-Marne;77;179043.0;EAU POTABLE;Mesure directe;2.6963549000718;48.3364458992268;Contrôlé Niveau 1;Correcte;False;Nouveau forage du Bignon;{'type': 'Point', 'crs': {'type': 'name', 'properties': {'name': 'urn:ogc:def:crs:OGC:1.3:CRS84'}}, 'coordinates': [2.6963549000717997, 48.3364458992268]};https://id.eaufrance.fr/OuvragePrel/OPR0000033631
2013;Bourron-Marlotte;77048;Seine-et-Marne;77;179043.0;EAU POTABLE;Mesure directe;2.6963549000718;48.3364458992268;Contrôlé Niveau 1;Correcte;False;Nouveau forage du Bignon;{'type': 'Point', 'crs': {'type': 'name', 'properties': {'name': 'urn:ogc:def:crs:OGC:1.3:CRS84'}}, 'coordinates': [2.6963549000717997, 48.3364458992268]};https://id.eaufrance.fr/OuvragePrel/OPR0000033632
2013;Bourron-Marlotte;77048;Seine-et-Marne;77;179043.0;EAU POTABLE;Mesure directe;2.6963549000718;48.3364458992268;Contrôlé Niveau 1;Correcte;False;Nouveau forage du Bignon;{'type': 'Point', 'crs': {'type': 'name', 'properties': {'name': 'urn:ogc:def:crs:OGC:1.3:CRS84'}}, 'coordinates': [2.6963549000717997, 48.3364458992268]};https://id.eaufrance.fr/OuvragePrel/OPR0000033633
2013;Bourron-Marlotte;77048;Seine-et-Marne;77;179043.0;EAU POTABLE;Mesure directe;2.6963549000718;48.3364458992268;Contrôlé Niveau 1;Correcte;False;Nouveau forage du Bignon;{'type': 'Point', 'crs': {'type': 'name', 'properties': {'name': 'urn:ogc:def:crs:OGC:1.3:CRS84'}}, 'coordinates': [2.6963549000717997, 48.3364458992268]};https://id.eaufrance.fr/OuvragePrel/OPR0000033634
2013;Bourron-Marlotte;77048;Seine-et-Marne;77;179043.0;EAU POTABLE;Mesure directe;2.6963549000718;48.3364458992268;Contrôlé Niveau 1;Correcte;False;Nouveau forage du Bignon;{'type': 'Point', 'crs': {'type': 'name', 'properties': {'name': 'urn:ogc:def:crs:OGC:1.3:CRS84'}}, 'coordinates': [2.6963549000717997, 48.3364458992268]};https://id.eaufrance.fr/OuvragePrel/OPR0000033635
2013;Bourron-Marlotte;77048;Seine-et-Marne;77;179043.0;EAU POTABLE;Mesure directe;2.6963549000718;48.3364458992268;Contrôlé Niveau 1;Correcte;False;Nouveau forage du Bignon;{'type': 'Point', 'crs': {'type': 'name', 'properties': {'name': 'urn:ogc:def:crs:OGC:1.3:CRS84'}}, 'coordinates': [2.6963549000717997, 48.3364458992268]};https://id.eaufrance.fr/OuvragePrel/OPR0000033636
2013;Bourron-Marlotte;77048;Seine-et-Marne;77;179043.0;EAU POTABLE;Mesure directe;2.6963549000718;48.3364458992268;Contrôlé Niveau 1;Correcte;False;Nouveau forage du Bignon;{'type': 'Point', 'crs': {'type': 'name', 'properties': {'name': 'urn:ogc:def:crs:OGC:1.3:CRS84'}}, 'coordinates': [2.6963549000717997, 48.3364458992268]};https://id.eaufrance.fr/OuvragePrel/OPR0000033637
2013;Genevraye;77202;Seine-et-Marne;77;179043.0;EAU POTABLE;Mesure directe;2.750389353968991;48.31644353341717;Contrôlé Niveau 1;Correcte;False;Nouveau forage St-Thomas;{'type': 'Point', 'crs': {'type': 'name', 'properties': {'name': 'urn:ogc:def:crs:OGC:1.3:CRS84'}}, 'coordinates': [2.750389353968991, 48.31644353341717]};https://id.eaufrance.fr/OuvragePrel/OPR0000033638
2013;Genevraye;77202;Seine-et-Marne;77;179043.0;EAU POTABLE;Mesure directe;2.750389353968991;48.31644353341717;Contrôlé Niveau 1;Correcte;False;Nouveau forage St-Thomas;{'type': 'Point', 'crs': {'type': 'name', 'properties': {'name': 'urn:ogc:def:crs:OGC:1.3:CRS84'}}, 'coordinates': [2.750389353968991, 48.31644353341717]};https://id.eaufrance.fr/OuvragePrel/OPR0000033639
2013;Genevraye;77202;Seine-et-Marne;77;179043.0;EAU POTABLE;Mesure directe;2.750389353968991;48.31644353341717;Contrôlé Niveau 1;Correcte;False;Nouveau forage St-Thomas;{'type': 'Point', 'crs': {'type': 'name', 'properties': {'name': 'urn:ogc:def:crs:OGC:1.3:CRS84'}}, 'coordinates': [2.750389353968991, 48.31644353341717]};https://id.eaufrance.fr/OuvragePrel/OPR0000033640
2013;Genevraye;77202;Seine-et-Marne;77;179043.0;EAU POTABLE;Mesure directe;2.750389353968991;48.31644353341717;Contrôlé Niveau 1;Correcte;False;Nouveau forage St-Thomas;{'type': 'Point', 'crs': {'type': 'name', 'properties': {'name': 'urn:ogc:def:crs:OGC:1.3:CRS84'}}, 'coordinates': [2.750389353968991, 48.31644353341717]};https://id.eaufrance.fr/OuvragePrel/OPR0000033641
2013;Genevraye;77202;Seine-et-Marne;77;179043.0;EAU POTABLE;Mesure directe;2.750389353968991;48.31644353341717;Contrôlé Niveau 1;Correcte;False;Nouveau forage St-Thomas;{'type': 'Point', 'crs': {'type': 'name', 'properties': {'name': 'urn:ogc:def:crs:OGC:1.3:CRS84'}}, 'coordinates': [2.750389353968991, 48.31644353341717]};https://id.eaufrance.fr/OuvragePrel/OPR0000033642
2013;Genevraye;77202;Seine-et-Marne;77;179043.0;EAU POTABLE;Mesure directe;2.750389353968991;48.31644353341717;Contrôlé Niveau 1;Correcte;False;Nouveau forage St-Thomas;{'type': 'Point', 'crs': {'type': 'name', 'properties': {'name': 'urn:ogc:def:crs:OGC:1.3:CRS84'}}, 'coordinates': [2.750389353968991, 48.31644353341717]};https://id.eaufrance.fr/OuvragePrel/OPR0000033643
2013;Genevraye;77202;Seine-et-Marne;77;179043.0;EAU POTABLE;Mesure directe;2.750389353968991;48.31644353341717;Contrôlé Niveau 1;Correcte;False;Nouveau forage St-Thomas;{'type': 'Point', 'crs': {'type': 'name', 'properties': {'name': 'urn:ogc:def:crs:OGC:1.3:CRS84'}}, 'coordinates': [2.750389353968991, 48.31644353341717]};https://id.eaufrance.fr/OuvragePrel/OPR0000033644
2013;Genevraye;77202;Seine-et-Marne;77;179043.0;EAU POTABLE;Mesure directe;2.750389353968991;48.31644353341717;Contrôlé Niveau 1;Correcte;False;Nouveau forage St-Thomas;{'type': 'Point', 'crs': {'type': 'name', 'properties': {'name': 'urn:ogc:def:crs:OGC:1.3:CRS84'}}, 'coordinates': [2.750389353968991, 48.31644353341717]};https://id.eaufrance.fr/OuvragePrel/OPR0000033645
2013;Genevraye;77202;Seine-et-Marne;77;179043.0;EAU POTABLE;Mesure directe;2.750389353968991;48.31644353341717;Contrôlé Niveau 1;Correcte;False;Nouveau forage St-Thomas;{'type': 'Point', 'crs': {'type': 'name', 'properties': {'name': 'urn:ogc:def:crs:OGC:1.3:CRS84'}}, 'coordinates': [2.750389353968991, 48.31644353341717]};https://id.eaufrance.fr/OuvragePrel/OPR0000033646
2013;Genevraye;77202;Seine-et-Marne;77;179043.0;EAU POTABLE;Mesure directe;2.750389353968991;48.31644353341717;Contrôlé Niveau 1;Correcte;False;Nouveau forage St-Thomas;{'type': 'Point', 'crs': {'type': 'name', 'properties': {'name': 'urn:ogc:def:crs:OGC:1.3:CRS84'}}, 'coordinates': [2.750389353968991, 48.31644353341717]};https://id.eaufrance.fr/OuvragePrel/OPR0000033647
2013;Genevraye;77202;Seine-et-Marne;77;179043.0;EAU POTABLE;Mesure directe;2.750389353968991;48.31644353341717;Contrôlé Niveau 1;Correcte;False;Nouveau forage St-Thomas;{'type': 'Point', 'crs': {'type': 'name', 'properties': {'name': 'urn:ogc:def:crs:OGC:1.3:CRS84'}}, 'coordinates': [2.750389353968991, 48.31644353341717]};https://id.eaufrance.fr/OuvragePrel/OPR0000033648
2013;Genevraye;77202;Seine-et-Marne;77;179043.0;EAU POTABLE;Mesure directe;2.750389353968991;48.31644353341717;Contrôlé Niveau 1;Correcte;False;Nouveau forage St-Thomas;{'type': 'Point', 'crs': {'type': 'name', 'properties': {'name': 'urn:ogc:def:crs:OGC:1.3:CRS84'}}, 'coordinates': [2.750389353968991, 48.31644353341717]};https://id.eaufrance.fr/OuvragePrel/OPR0000033649
2013;Genevraye;77202;Seine-et-Marne;77;179043.0;EAU POTABLE;Mesure directe;2.750389353968991;48.31644353341717;Contrôlé Niveau 1;Correcte;False;Nouveau forage St-Thomas;{'type': 'Point', 'crs': {'type': 'name', 'properties': {'name': 'urn:ogc:def:crs:OGC:1.3:CRS84'}}, 'coordinates': [2.750389353968991, 48.31644353341717]};https://id.eaufrance.fr/OuvragePrel/OPR0000033650
2013;Genevraye;77202;Seine-et-Marne;77;179043.0;EAU POTABLE;Mesure directe;2.750389353968991;48.31644353341717;Contrôlé Niveau 1;Correcte;False;Nouveau forage St-Thomas;{'type': 'Point', 'crs': {'type': 'name', 'properties': {'name': 'urn:ogc:def:crs:OGC:1.3:CRS84'}}, 'coordinates': [2.750389353968991, 48.31644353341717]};https://id.eaufrance.fr/OuvragePrel/OPR0000033651
2013;Genevraye;77202;Seine-et-Marne;77;179043.0;EAU POTABLE;Mesure directe;2.750389353968991;48.31644353341717;Contrôlé Niveau 1;Correcte;False;Forage entourage Coignet;{'type': 'Point', 'crs': {'type': 'name', 'properties': {'name': 'urn:ogc:def:crs:OGC:1.3:CRS84'}}, 'coordinates': [2.750389353968991, 48.31644353341717]};https://id.eaufrance.fr/OuvragePrel/OPR0000033652
2013;Genevraye;77202;Seine-et-Marne;77;179043.0;EAU POTABLE;Mesure directe;2.750389353968991;48.31644353341717;Contrôlé Niveau 1;Correcte;False;Forage entourage Coignet;{'type': 'Point', 'crs': {'type': 'name', 'properties': {'name': 'urn:ogc:def:crs:OGC:1.3:CRS84'}}, 'coordinates': [2.750389353968991, 48.31644353341717]};https://id.eaufrance.fr/OuvragePrel/OPR0000033653
2013;Genevraye;77202;Seine-et-Marne;77;179043.0;EAU POTABLE;Mesure directe;2.750389353968991;48.31644353341717;Contrôlé Niveau 1;Correcte;False;Forage entourage Coignet;{'type': 'Point', 'crs': {'type': 'name', 'properties': {'name': 'urn:ogc:def:crs:OGC:1.3:CRS84'}}, 'coordinates': [2.750389353968991, 48.31644353341717]};https://id.eaufrance.fr/OuvragePrel/OPR0000033654
2013;Genevraye;77202;Seine-et-Marne;77;179043.0;EAU POTABLE;Mesure directe;2.750389353968991;48.31644353341717;Contrôlé Niveau 1;Correcte;False;Forage entourage Coignet;{'type': 'Point', 'crs': {'type': 'name', 'properties': {'name': 'urn:ogc:def:crs:OGC:1.3:CRS84'}}, 'coordinates': [2.750389353968991, 48.31644353341717]};https://id.eaufrance.fr/OuvragePrel/OPR0000033655
2013;Genevraye;77202;Seine-et-Marne;77;179043.0;EAU POTABLE;Mesure directe;2.750389353968991;48.31644353341717;Contrôlé Niveau 1;Correcte;False;Nouveau forage Coignet;{'type': 'Point', 'crs': {'type': 'name', 'properties': {'name': 'urn:ogc:def:crs:OGC:1.3:CRS84'}}, 'coordinates': [2.750389353968991, 48.31644353341717]};https://id.eaufrance.fr/OuvragePrel/OPR0000033656
2013;Genevraye;77202;Seine-et-Marne;77;179043.0;EAU POTABLE;Mesure directe;2.750389353968991;48.31644353341717;Contrôlé Niveau 1;Correcte;False;Nouveau forage Coignet;{'type': 'Point', 'crs': {'type': 'name', 'properties': {'name': 'urn:ogc:def:crs:OGC:1.3:CRS84'}}, 'coordinates': [2.750389353968991, 48.31644353341717]};https://id.eaufrance.fr/OuvragePrel/OPR0000033657
2013;Genevraye;77202;Seine-et-Marne;77;179043.0;EAU POTABLE;Mesure directe;2.750389353968991;48.31644353341717;Contrôlé Niveau 1;Correcte;False;Nouveau forage Coignet;{'type': 'Point', 'crs': {'type': 'name', 'properties': {'name': 'urn:ogc:def:crs:OGC:1.3:CRS84'}}, 'coordinates': [2.750389353968991, 48.31644353341717]};https://id.eaufrance.fr/OuvragePrel/OPR0000033658
2013;Genevraye;77202;Seine-et-Marne;77;179043.0;EAU POTABLE;Mesure directe;2.750389353968991;48.31644353341717;Contrôlé Niveau 1;Correcte;False;Nouveau forage Coignet;{'type': 'Point', 'crs': {'type': 'name', 'properties': {'name': 'urn:ogc:def:crs:OGC:1.3:CRS84'}}, 'coordinates': [2.750389353968991, 48.31644353341717]};https://id.eaufrance.fr/OuvragePrel/OPR0000033659
2013;Genevraye;77202;Seine-et-Marne;77;179043.0;EAU POTABLE;Mesure directe;2.750389353968991;48.31644353341717;Contrôlé Niveau 1;Correcte;False;Nouveau forage Coignet;{'type': 'Point', 'crs': {'type': 'name', 'properties': {'name': 'urn:ogc:def:crs:OGC:1.3:CRS84'}}, 'coordinates': [2.750389353968991, 48.31644353341717]};https://id.eaufrance.fr/OuvragePrel/OPR0000033660
2013;Genevraye;77202;Seine-et-Marne;77;179043.0;EAU POTABLE;Mesure directe;2.750389353968991;48.31644353341717;Contrôlé Niveau 1;Correcte;False;Nouveau forage Coignet;{'type': 'Point', 'crs': {'type': 'name', 'properties': {'name': 'urn:ogc:def:crs:OGC:1.3:CRS84'}}, 'coordinates': [2.750389353968991, 48.31644353341717]};https://id.eaufrance.fr/OuvragePrel/OPR0000033661
2013;Genevraye;77202;Seine-et-Marne;77;179043.0;EAU POTABLE;Mesure directe;2.750389353968991;48.31644353341717;Contrôlé Niveau 1;Correcte;False;Nouveau forage Coignet;{'type': 'Point', 'crs': {'type': 'name', 'properties': {'name': 'urn:ogc:def:crs:OGC:1.3:CRS84'}}, 'coordinates': [2.750389353968991, 48.31644353341717]};https://id.eaufrance.fr/OuvragePrel/OPR0000033662
2013;Genevraye;77202;Seine-et-Marne;77;179043.0;EAU POTABLE;Mesure directe;2.750389353968991;48.31644353341717;Contrôlé Niveau 1;Correcte;False;Nouveau forage Coignet;{'type': 'Point', 'crs': {'type': 'name', 'properties': {'name': 'urn:ogc:def:crs:OGC:1.3:CRS84'}}, 'coordinates': [2.750389353968991, 48.31644353341717]};https://id.eaufrance.fr/OuvragePrel/OPR0000033663
2013;Genevraye;77202;Seine-et-Marne;77;179043.0;EAU POTABLE;Mesure directe;2.750389353968991;48.31644353341717;Contrôlé Niveau 1;Correcte;False;Nouveau forage Coignet;{'type': 'Point', 'crs': {'type': 'name', 'properties': {'name': 'urn:ogc:def:crs:OGC:1.3:CRS84'}}, 'coordinates': [2.750389353968991, 48.31644353341717]};https://id.eaufrance.fr/OuvragePrel/OPR0000033664
2013;Genevraye;77202;Seine-et-Marne;77;179043.0;EAU POTABLE;Mesure directe;2.750389353968991;48.31644353341717;Contrôlé Niveau 1;Correcte;False;Nouveau forage Coignet;{'type': 'Point', 'crs': {'type': 'name', 'properties': {'name': 'urn:ogc:def:crs:OGC:1.3:CRS84'}}, 'coordinates': [2.750389353968991, 48.31644353341717]};https://id.eaufrance.fr/OuvragePrel/OPR0000033665
2013;Genevraye;77202;Seine-et-Marne;77;179043.0;EAU POTABLE;Mesure directe;2.750389353968991;48.31644353341717;Contrôlé Niveau 1;Correcte;False;Nouveau forage Coignet;{'type': 'Point', 'crs': {'type': 'name', 'properties': {'name': 'urn:ogc:def:crs:OGC:1.3:CRS84'}}, 'coordinates': [2.750389353968991, 48.31644353341717]};https://id.eaufrance.fr/OuvragePrel/OPR0000033666
2013;Genevraye;77202;Seine-et-Marne;77;179043.0;EAU POTABLE;Mesure directe;2.750389353968991;48.31644353341717;Contrôlé Niveau 1;Correcte;False;Nouveau forage Coignet;{'type': 'Point', 'crs': {'type': 'name', 'properties': {'name': 'urn:ogc:def:crs:OGC:1.3:CRS84'}}, 'coordinates': [2.750389353968991, 48.31644353341717]};https://id.eaufrance.fr/OuvragePrel/OPR0000033667
2013;Genevraye;77202;Seine-et-Marne;77;179043.0;EAU POTABLE;Mesure directe;2.750389353968991;48.31644353341717;Contrôlé Niveau 1;Correcte;False;Nouveau forage Coignet;{'type': 'Point', 'crs': {'type': 'name', 'properties': {'name': 'urn:ogc:def:crs:OGC:1.3:CRS84'}}, 'coordinates': [2.750389353968991, 48.31644353341717]};https://id.eaufrance.fr/OuvragePrel/OPR0000033668
2013;Genevraye;77202;Seine-et-Marne;77;179043.0;EAU POTABLE;Mesure directe;2.750389353968991;48.31644353341717;Contrôlé Niveau 1;Correcte;False;Nouveau forage Coignet;{'type': 'Point', 'crs': {'type': 'name', 'properties': {'name': 'urn:ogc:def:crs:OGC:1.3:CRS84'}}, 'coordinates': [2.750389353968991, 48.31644353341717]};https://id.eaufrance.fr/OuvragePrel/OPR0000033669
2013;Genevraye;77202;Seine-et-Marne;77;179043.0;EAU POTABLE;Mesure directe;2.750389353968991;48.31644353341717;Contrôlé Niveau 1;Correcte;False;Nouveau forage Coignet;{'type': 'Point', 'crs': {'type': 'name', 'properties': {'name': 'urn:ogc:def:crs:OGC:1.3:CRS84'}}, 'coordinates': [2.750389353968991, 48.31644353341717]};https://id.eaufrance.fr/OuvragePrel/OPR0000033670
2013;Genevraye;77202;Seine-et-Marne;77;179043.0;EAU POTABLE;Mesure directe;2.750389353968991;48.31644353341717;Contrôlé Niveau 1;Correcte;False;Nouveau forage Coignet;{'type': 'Point', 'crs': {'type': 'name', 'properties': {'name': 'urn:ogc:def:crs:OGC:1.3:CRS84'}}, 'coordinates': [2.750389353968991, 48.31644353341717]};https://id.eaufrance.fr/OuvragePrel/OPR0000033671
2013;Grande-Paroisse;77210;Seine-et-Marne;77;518925.0;EAU POTABLE;Mesure directe;2.9058248916463896;48.39385201596226;Contrôlé Niveau 1;Correcte;False;LA GRANDE PAROISSE;{'type': 'Point', 'crs': {'type': 'name', 'properties': {'name': 'urn:ogc:def:crs:OGC:1.3:CRS84'}}, 'coordinates': [2.9058248916463896, 48.39385201596226]};https://id.eaufrance.fr/OuvragePrel/OPR0000033701
2013;Saint-Loup-de-Naud;77418;Seine-et-Marne;77;178047.0;EAU POTABLE;Mesure directe;3.215875826814334;48.5368350024264;Contrôlé Niveau 1;Correcte;False;Source de Glatignys;{'type': 'Point', 'crs': {'type': 'name', 'properties': {'name': 'urn:ogc:def:crs:OGC:1.3:CRS84'}}, 'coordinates': [3.215875826814334, 48.5368350024264]};https://id.eaufrance.fr/OuvragePrel/OPR0000033703
2013;Saint-Loup-de-Naud;77418;Seine-et-Marne;77;178047.0;EAU POTABLE;Mesure directe;3.215875826814334;48.5368350024264;Contrôlé Niveau 1;Correcte;False;Source Pigeons;{'type': 'Point', 'crs': {'type': 'name', 'properties': {'name': 'urn:ogc:def:crs:OGC:1.3:CRS84'}}, 'coordinates': [3.215875826814334, 48.5368350024264]};https://id.eaufrance.fr/OuvragePrel/OPR0000033704
2013;Saint-Loup-de-Naud;77418;Seine-et-Marne;77;178047.0;EAU POTABLE;Mesure directe;3.215875826814334;48.5368350024264;Contrôlé Niveau 1;Correcte;False;Source des Gauthières;{'type': 'Point', 'crs': {'type': 'name', 'properties': {'name': 'urn:ogc:def:crs:OGC:1.3:CRS84'}}, 'coordinates': [3.215875826814334, 48.5368350024264]};https://id.eaufrance.fr/OuvragePrel/OPR0000033705
2013;Saint-Loup-de-Naud;77418;Seine-et-Marne;77;178047.0;EAU POTABLE;Mesure directe;3.215875826814334;48.5368350024264;Contrôlé Niveau 1;Correcte;False;Source Vieux Moulin;{'type': 'Point', 'crs': {'type': 'name', 'properties': {'name': 'urn:ogc:def:crs:OGC:1.3:CRS84'}}, 'coordinates': [3.215875826814334, 48.5368350024264]};https://id.eaufrance.fr/OuvragePrel/OPR0000033706
2013;Rouilly;77391;Seine-et-Marne;77;1032860.0;EAU POTABLE;Mesure directe;3.2900351865144275;48.59120541372759;Contrôlé Niveau 1;Correcte;False;Source de Brocard;{'type': 'Point', 'crs': {'type': 'name', 'properties': {'name': 'urn:ogc:def:crs:OGC:1.3:CRS84'}}, 'coordinates': [3.2900351865144275, 48.59120541372759]};https://id.eaufrance.fr/OuvragePrel/OPR0000033707
2013;Rouilly;77391;Seine-et-Marne;77;1032860.0;EAU POTABLE;Mesure directe;3.2900351865144275;48.59120541372759;Contrôlé Niveau 1;Correcte;False;Source des Fonds Tenus;{'type': 'Point', 'crs': {'type': 'name', 'properties': {'name': 'urn:ogc:def:crs:OGC:1.3:CRS84'}}, 'coordinates': [3.2900351865144275, 48.59120541372759]};https://id.eaufrance.fr/OuvragePrel/OPR0000033708
2013;Rouilly;77391;Seine-et-Marne;77;1032860.0;EAU POTABLE;Mesure directe;3.2900351865144275;48.59120541372759;Contrôlé Niveau 1;Correcte;False;Source des Fontaines Rouillot;{'type': 'Point', 'crs': {'type': 'name', 'properties': {'name': 'urn:ogc:def:crs:OGC:1.3:CRS84'}}, 'coordinates': [3.2900351865144275, 48.59120541372759]};https://id.eaufrance.fr/OuvragePrel/OPR0000033709
2013;Rouilly;77391;Seine-et-Marne;77;1033660.0;EAU POTABLE;Mesure directe;3.2900351865144275;48.59120541372759;Contrôlé Niveau 1;Correcte;False;Drain des Fontaines Rouillot;{'type': 'Point', 'crs': {'type': 'name', 'properties': {'name': 'urn:ogc:def:crs:OGC:1.3:CRS84'}}, 'coordinates': [3.2900351865144275, 48.59120541372759]};https://id.eaufrance.fr/OuvragePrel/OPR0000033710
2013;Léchelle;77246;Seine-et-Marne;77;512164.0;EAU POTABLE;Mesure directe;3.38781905478914;48.57304012541861;Contrôlé Niveau 1;Correcte;False;Galerie de Tête S1;{'type': 'Point', 'crs': {'type': 'name', 'properties': {'name': 'urn:ogc:def:crs:OGC:1.3:CRS84'}}, 'coordinates': [3.3878190547891402, 48.57304012541861]};https://id.eaufrance.fr/OuvragePrel/OPR0000033711
2013;Léchelle;77246;Seine-et-Marne;77;512164.0;EAU POTABLE;Mesure directe;3.38781905478914;48.57304012541861;Contrôlé Niveau 1;Correcte;False;Captage de l'Auge 1;{'type': 'Point', 'crs': {'type': 'name', 'properties': {'name': 'urn:ogc:def:crs:OGC:1.3:CRS84'}}, 'coordinates': [3.3878190547891402, 48.57304012541861]};https://id.eaufrance.fr/OuvragePrel/OPR0000033712
2013;Léchelle;77246;Seine-et-Marne;77;512164.0;EAU POTABLE;Mesure directe;3.38781905478914;48.57304012541861;Contrôlé Niveau 1;Correcte;False;Forage Neufs S1;{'type': 'Point', 'crs': {'type': 'name', 'properties': {'name': 'urn:ogc:def:crs:OGC:1.3:CRS84'}}, 'coordinates': [3.3878190547891402, 48.57304012541861]};https://id.eaufrance.fr/OuvragePrel/OPR0000033713
2013;Léchelle;77246;Seine-et-Marne;77;512164.0;EAU POTABLE;Mesure directe;3.38781905478914;48.57304012541861;Contrôlé Niveau 1;Correcte;False;Captage de la Vicomté;{'type': 'Point', 'crs': {'type': 'name', 'properties': {'name': 'urn:ogc:def:crs:OGC:1.3:CRS84'}}, 'coordinates': [3.3878190547891402, 48.57304012541861]};https://id.eaufrance.fr/OuvragePrel/OPR0000033714
2013;Sourdun;77459;Seine-et-Marne;77;501958.0;EAU POTABLE;Mesure directe;3.372468927825997;48.53349705078372;Contrôlé Niveau 1;Correcte;False;Galerie du Bassin;{'type': 'Point', 'crs': {'type': 'name', 'properties': {'name': 'urn:ogc:def:crs:OGC:1.3:CRS84'}}, 'coordinates': [3.372468927825997, 48.53349705078372]};https://id.eaufrance.fr/OuvragePrel/OPR0000033715
2013;Léchelle;77246;Seine-et-Marne;77;512164.0;EAU POTABLE;Mesure directe;3.38781905478914;48.57304012541861;Contrôlé Niveau 1;Correcte;False;Captage de l'Auge 2;{'type': 'Point', 'crs': {'type': 'name', 'properties': {'name': 'urn:ogc:def:crs:OGC:1.3:CRS84'}}, 'coordinates': [3.3878190547891402, 48.57304012541861]};https://id.eaufrance.fr/OuvragePrel/OPR0000033716
2013;Léchelle;77246;Seine-et-Marne;77;512164.0;EAU POTABLE;Mesure directe;3.38781905478914;48.57304012541861;Contrôlé Niveau 1;Correcte;False;Forage Neufs S2;{'type': 'Point', 'crs': {'type': 'name', 'properties': {'name': 'urn:ogc:def:crs:OGC:1.3:CRS84'}}, 'coordinates': [3.3878190547891402, 48.57304012541861]};https://id.eaufrance.fr/OuvragePrel/OPR0000033717
2013;Léchelle;77246;Seine-et-Marne;77;507106.0;EAU POTABLE;Mesure directe;3.38781905478914;48.57304012541861;Contrôlé Niveau 1;Correcte;False;Forage du groupe A;{'type': 'Point', 'crs': {'type': 'name', 'properties': {'name': 'urn:ogc:def:crs:OGC:1.3:CRS84'}}, 'coordinates': [3.3878190547891402, 48.57304012541861]};https://id.eaufrance.fr/OuvragePrel/OPR0000033718
2013;Léchelle;77246;Seine-et-Marne;77;507106.0;EAU POTABLE;Mesure directe;3.38781905478914;48.57304012541861;Contrôlé Niveau 1;Correcte;False;Forage du groupe A;{'type': 'Point', 'crs': {'type': 'name', 'properties': {'name': 'urn:ogc:def:crs:OGC:1.3:CRS84'}}, 'coordinates': [3.3878190547891402, 48.57304012541861]};https://id.eaufrance.fr/OuvragePrel/OPR0000033719
2013;Léchelle;77246;Seine-et-Marne;77;507106.0;EAU POTABLE;Mesure directe;3.38781905478914;48.57304012541861;Contrôlé Niveau 1;Correcte;False;Forage du groupe C;{'type': 'Point', 'crs': {'type': 'name', 'properties': {'name': 'urn:ogc:def:crs:OGC:1.3:CRS84'}}, 'coordinates': [3.3878190547891402, 48.57304012541861]};https://id.eaufrance.fr/OuvragePrel/OPR0000033720
2013;Léchelle;77246;Seine-et-Marne;77;507106.0;EAU POTABLE;Mesure directe;3.38781905478914;48.57304012541861;Contrôlé Niveau 1;Correcte;False;Forage du groupe C;{'type': 'Point', 'crs': {'type': 'name', 'properties': {'name': 'urn:ogc:def:crs:OGC:1.3:CRS84'}}, 'coordinates': [3.3878190547891402, 48.57304012541861]};https://id.eaufrance.fr/OuvragePrel/OPR0000033721
2013;Léchelle;77246;Seine-et-Marne;77;507106.0;EAU POTABLE;Mesure directe;3.38781905478914;48.57304012541861;Contrôlé Niveau 1;Correcte;False;Forage du groupe C;{'type': 'Point', 'crs': {'type': 'name', 'properties': {'name': 'urn:ogc:def:crs:OGC:1.3:CRS84'}}, 'coordinates': [3.3878190547891402, 48.57304012541861]};https://id.eaufrance.fr/OuvragePrel/OPR0000033722
2013;Léchelle;77246;Seine-et-Marne;77;507106.0;EAU POTABLE;Mesure directe;3.38781905478914;48.57304012541861;Contrôlé Niveau 1;Correcte;False;Forage du groupe C;{'type': 'Point', 'crs': {'type': 'name', 'properties': {'name': 'urn:ogc:def:crs:OGC:1.3:CRS84'}}, 'coordinates': [3.3878190547891402, 48.57304012541861]};https://id.eaufrance.fr/OuvragePrel/OPR0000033723
2013;Léchelle;77246;Seine-et-Marne;77;507106.0;EAU POTABLE;Mesure directe;3.38781905478914;48.57304012541861;Contrôlé Niveau 1;Correcte;False;Forage de la Rivière;{'type': 'Point', 'crs': {'type': 'name', 'properties': {'name': 'urn:ogc:def:crs:OGC:1.3:CRS84'}}, 'coordinates': [3.3878190547891402, 48.57304012541861]};https://id.eaufrance.fr/OuvragePrel/OPR0000033724
2013;Léchelle;77246;Seine-et-Marne;77;507106.0;EAU POTABLE;Mesure directe;3.38781905478914;48.57304012541861;Contrôlé Niveau 1;Correcte;False;Forage de la Rivière;{'type': 'Point', 'crs': {'type': 'name', 'properties': {'name': 'urn:ogc:def:crs:OGC:1.3:CRS84'}}, 'coordinates': [3.3878190547891402, 48.57304012541861]};https://id.eaufrance.fr/OuvragePrel/OPR0000033725
2013;Léchelle;77246;Seine-et-Marne;77;507106.0;EAU POTABLE;Mesure directe;3.38781905478914;48.57304012541861;Contrôlé Niveau 1;Correcte;False;Forage de la Rivière;{'type': 'Point', 'crs': {'type': 'name', 'properties': {'name': 'urn:ogc:def:crs:OGC:1.3:CRS84'}}, 'coordinates': [3.3878190547891402, 48.57304012541861]};https://id.eaufrance.fr/OuvragePrel/OPR0000033726
2013;Meaux;77284;Seine-et-Marne;77;5675815.0;EAU POTABLE;Mesure directe;2.90410932530279;48.9572592133337;Contrôlé Niveau 1;Correcte;False;prise d'eau nanteuil;{'type': 'Point', 'crs': {'type': 'name', 'properties': {'name': 'urn:ogc:def:crs:OGC:1.3:CRS84'}}, 'coordinates': [2.90410932530279, 48.9572592133337]};https://id.eaufrance.fr/OuvragePrel/OPR0000033808
2013;Mortcerf;77318;Seine-et-Marne;77;29991.0;EAU POTABLE;Mesure directe;2.8987423675299846;48.7800260295284;Contrôlé Niveau 1;Correcte;False;MORTCERF;{'type': 'Point', 'crs': {'type': 'name', 'properties': {'name': 'urn:ogc:def:crs:OGC:1.3:CRS84'}}, 'coordinates': [2.8987423675299846, 48.7800260295284]};https://id.eaufrance.fr/OuvragePrel/OPR0000033810
2013;Mortcerf;77318;Seine-et-Marne;77;29991.0;EAU POTABLE;Mesure directe;2.8987423675299846;48.7800260295284;Contrôlé Niveau 1;Correcte;False;MORTCERF;{'type': 'Point', 'crs': {'type': 'name', 'properties': {'name': 'urn:ogc:def:crs:OGC:1.3:CRS84'}}, 'coordinates': [2.8987423675299846, 48.7800260295284]};https://id.eaufrance.fr/OuvragePrel/OPR0000033811
2013;Jaulnes;77236;Seine-et-Marne;77;545091.0;EAU POTABLE;Mesure directe;3.272016006553673;48.41444164674367;Contrôlé Niveau 1;Correcte;False;Jaulnes 1 - château Villeceaux;{'type': 'Point', 'crs': {'type': 'name', 'properties': {'name': 'urn:ogc:def:crs:OGC:1.3:CRS84'}}, 'coordinates': [3.272016006553673, 48.41444164674367]};https://id.eaufrance.fr/OuvragePrel/OPR0000033812
2013;Donnemarie-Dontilly;77159;Seine-et-Marne;77;12580.0;EAU POTABLE;Mesure directe;3.128264432575758;48.481653284973234;Contrôlé Niveau 1;Correcte;False;DONNEMARIE-DONTILLY;{'type': 'Point', 'crs': {'type': 'name', 'properties': {'name': 'urn:ogc:def:crs:OGC:1.3:CRS84'}}, 'coordinates': [3.128264432575758, 48.481653284973234]};https://id.eaufrance.fr/OuvragePrel/OPR0000033813
2013;Ormes-sur-Voulzie;77347;Seine-et-Marne;77;73750.0;EAU POTABLE;Mesure directe;3.2236228055339007;48.46134339078465;Contrôlé Niveau 1;Correcte;False;LES ORMES SUR VOULZIE;{'type': 'Point', 'crs': {'type': 'name', 'properties': {'name': 'urn:ogc:def:crs:OGC:1.3:CRS84'}}, 'coordinates': [3.2236228055339007, 48.46134339078465]};https://id.eaufrance.fr/OuvragePrel/OPR0000033814
2013;Aubepierre-Ozouer-le-Repos;77010;Seine-et-Marne;77;55592.0;EAU POTABLE;Mesure directe;2.912577595400575;48.61902262911077;Contrôlé Niveau 1;Correcte;False;AUBEPIERRE-OZOUER-LE-REPOS;{'type': 'Point', 'crs': {'type': 'name', 'properties': {'name': 'urn:ogc:def:crs:OGC:1.3:CRS84'}}, 'coordinates': [2.912577595400575, 48.61902262911077]};https://id.eaufrance.fr/OuvragePrel/OPR0000033815
2013;Beauvoir;77029;Seine-et-Marne;77;29846.0;EAU POTABLE;Mesure directe;2.8664201664244637;48.643173773958736;Contrôlé Niveau 1;Correcte;False;BEAUVOIR;{'type': 'Point', 'crs': {'type': 'name', 'properties': {'name': 'urn:ogc:def:crs:OGC:1.3:CRS84'}}, 'coordinates': [2.8664201664244633, 48.643173773958736]};https://id.eaufrance.fr/OuvragePrel/OPR0000033816
2013;Coubert;77127;Seine-et-Marne;77;180245.0;EAU POTABLE;Mesure directe;2.7064883198133147;48.678236378333615;Contrôlé Niveau 1;Correcte;False;COUBERT;{'type': 'Point', 'crs': {'type': 'name', 'properties': {'name': 'urn:ogc:def:crs:OGC:1.3:CRS84'}}, 'coordinates': [2.7064883198133147, 48.678236378333615]};https://id.eaufrance.fr/OuvragePrel/OPR0000033817
2013;Paroy;77355;Seine-et-Marne;77;2734.0;EAU POTABLE;Mesure directe;3.202511016906761;48.47955671112897;Contrôlé Niveau 1;Correcte;False;PAROY;{'type': 'Point', 'crs': {'type': 'name', 'properties': {'name': 'urn:ogc:def:crs:OGC:1.3:CRS84'}}, 'coordinates': [3.202511016906761, 48.47955671112897]};https://id.eaufrance.fr/OuvragePrel/OPR0000033818
2013;Thénisy;77461;Seine-et-Marne;77;2936.0;EAU POTABLE;Mesure directe;3.180337579020568;48.49017868274986;Contrôlé Niveau 1;Correcte;False;THENISY;{'type': 'Point', 'crs': {'type': 'name', 'properties': {'name': 'urn:ogc:def:crs:OGC:1.3:CRS84'}}, 'coordinates': [3.180337579020568, 48.49017868274986]};https://id.eaufrance.fr/OuvragePrel/OPR0000033819
2013;Donnemarie-Dontilly;77159;Seine-et-Marne;77;39269.0;EAU POTABLE;Mesure directe;3.128264432575758;48.481653284973234;Contrôlé Niveau 1;Correcte;False;DONNEMARIE-DONTILLY;{'type': 'Point', 'crs': {'type': 'name', 'properties': {'name': 'urn:ogc:def:crs:OGC:1.3:CRS84'}}, 'coordinates': [3.128264432575758, 48.481653284973234]};https://id.eaufrance.fr/OuvragePrel/OPR0000033820
2013;Marles-en-Brie;77277;Seine-et-Marne;77;435078.0;EAU POTABLE;Mesure directe;2.8928592685922725;48.725246678544885;Contrôlé Niveau 1;Correcte;False;FONTENAY-TRESIGNY;{'type': 'Point', 'crs': {'type': 'name', 'properties': {'name': 'urn:ogc:def:crs:OGC:1.3:CRS84'}}, 'coordinates': [2.8928592685922725, 48.725246678544885]};https://id.eaufrance.fr/OuvragePrel/OPR0000033821
2013;Voinsles;77527;Seine-et-Marne;77;35185.0;EAU POTABLE;Mesure directe;3.013151812542482;48.68103973744128;Contrôlé Niveau 1;Correcte;False;VOINSLES;{'type': 'Point', 'crs': {'type': 'name', 'properties': {'name': 'urn:ogc:def:crs:OGC:1.3:CRS84'}}, 'coordinates': [3.013151812542482, 48.68103973744128]};https://id.eaufrance.fr/OuvragePrel/OPR0000033822
2013;Vimpelles;77524;Seine-et-Marne;77;6748.0;EAU POTABLE;Mesure directe;3.1687371468766825;48.44355926070071;Contrôlé Niveau 1;Correcte;False;VIMPELLES;{'type': 'Point', 'crs': {'type': 'name', 'properties': {'name': 'urn:ogc:def:crs:OGC:1.3:CRS84'}}, 'coordinates': [3.1687371468766825, 48.44355926070071]};https://id.eaufrance.fr/OuvragePrel/OPR0000033828
2013;Rozay-en-Brie;77393;Seine-et-Marne;77;276840.0;EAU POTABLE;Mesure directe;2.965296664553652;48.68215333534437;Contrôlé Niveau 1;Correcte;False;ROZAY-EN-BRIE;{'type': 'Point', 'crs': {'type': 'name', 'properties': {'name': 'urn:ogc:def:crs:OGC:1.3:CRS84'}}, 'coordinates': [2.9652966645536516, 48.68215333534437]};https://id.eaufrance.fr/OuvragePrel/OPR0000033829
2013;Pézarches;77360;Seine-et-Marne;77;188933.0;EAU POTABLE;Mesure directe;2.989953826479775;48.746128199879;Contrôlé Niveau 1;Correcte;False;Pézarches 1;{'type': 'Point', 'crs': {'type': 'name', 'properties': {'name': 'urn:ogc:def:crs:OGC:1.3:CRS84'}}, 'coordinates': [2.989953826479775, 48.746128199878996]};https://id.eaufrance.fr/OuvragePrel/OPR0000033830
2013;Villeneuve-le-Comte;77508;Seine-et-Marne;77;275269.0;EAU POTABLE;Mesure directe;2.838883244791272;48.81116010969433;Contrôlé Niveau 1;Correcte;False;Villeneuve le Comte 1;{'type': 'Point', 'crs': {'type': 'name', 'properties': {'name': 'urn:ogc:def:crs:OGC:1.3:CRS84'}}, 'coordinates': [2.838883244791272, 48.81116010969433]};https://id.eaufrance.fr/OuvragePrel/OPR0000033831
2013;Montigny-le-Guesdier;77310;Seine-et-Marne;77;15356.0;EAU POTABLE;Mesure directe;3.2509766328437326;48.38386481832685;Contrôlé Niveau 1;Correcte;False;MONTIGNY LE GUESDIER;{'type': 'Point', 'crs': {'type': 'name', 'properties': {'name': 'urn:ogc:def:crs:OGC:1.3:CRS84'}}, 'coordinates': [3.2509766328437326, 48.38386481832685]};https://id.eaufrance.fr/OuvragePrel/OPR0000033832
2013;Châtenay-sur-Seine;77101;Seine-et-Marne;77;88609.0;EAU POTABLE;Mesure directe;3.093747625069377;48.41980179080659;Contrôlé Niveau 1;Correcte;False;Chatenay sur Seine 3;{'type': 'Point', 'crs': {'type': 'name', 'properties': {'name': 'urn:ogc:def:crs:OGC:1.3:CRS84'}}, 'coordinates': [3.093747625069377, 48.41980179080659]};https://id.eaufrance.fr/OuvragePrel/OPR0000033833
2013;Chalmaison;77076;Seine-et-Marne;77;36998.0;EAU POTABLE;Mesure directe;3.2563983291283987;48.49035529183339;Contrôlé Niveau 1;Correcte;False;CHALMAISON;{'type': 'Point', 'crs': {'type': 'name', 'properties': {'name': 'urn:ogc:def:crs:OGC:1.3:CRS84'}}, 'coordinates': [3.2563983291283987, 48.49035529183339]};https://id.eaufrance.fr/OuvragePrel/OPR0000033834
2013;Marolles-sur-Seine;77279;Seine-et-Marne;77;384183.0;EAU POTABLE;Mesure directe;3.0297262414751414;48.3812752510411;Contrôlé Niveau 1;Correcte;False;MAROLLES SUR SEINE;{'type': 'Point', 'crs': {'type': 'name', 'properties': {'name': 'urn:ogc:def:crs:OGC:1.3:CRS84'}}, 'coordinates': [3.0297262414751414, 48.3812752510411]};https://id.eaufrance.fr/OuvragePrel/OPR0000033835
2013;Lissy;77253;Seine-et-Marne;77;205530.0;EAU POTABLE;Mesure directe;2.70365237698314;48.61851295140434;Contrôlé Niveau 1;Correcte;False;LISSY;{'type': 'Point', 'crs': {'type': 'name', 'properties': {'name': 'urn:ogc:def:crs:OGC:1.3:CRS84'}}, 'coordinates': [2.7036523769831398, 48.61851295140434]};https://id.eaufrance.fr/OuvragePrel/OPR0000033836
2013;Saint-Fargeau-Ponthierry;77407;Seine-et-Marne;77;182396.0;EAU POTABLE;Mesure directe;2.521911533824989;48.54111756993458;Contrôlé Niveau 1;Correcte;False;ST FARGEAU PONTHIERRY;{'type': 'Point', 'crs': {'type': 'name', 'properties': {'name': 'urn:ogc:def:crs:OGC:1.3:CRS84'}}, 'coordinates': [2.521911533824989, 48.54111756993458]};https://id.eaufrance.fr/OuvragePrel/OPR0000034093
2013;Saint-Fargeau-Ponthierry;77407;Seine-et-Marne;77;182396.0;EAU POTABLE;Mesure directe;2.521911533824989;48.54111756993458;Contrôlé Niveau 1;Correcte;False;ST FARGEAU PONTHIERRY;{'type': 'Point', 'crs': {'type': 'name', 'properties': {'name': 'urn:ogc:def:crs:OGC:1.3:CRS84'}}, 'coordinates': [2.521911533824989, 48.54111756993458]};https://id.eaufrance.fr/OuvragePrel/OPR0000034094
2013;Seine-Port;77447;Seine-et-Marne;77;120708.0;EAU POTABLE;Mesure directe;2.558215299385989;48.553578324660165;Contrôlé Niveau 1;Correcte;False;Seine port 1;{'type': 'Point', 'crs': {'type': 'name', 'properties': {'name': 'urn:ogc:def:crs:OGC:1.3:CRS84'}}, 'coordinates': [2.5582152993859895, 48.553578324660165]};https://id.eaufrance.fr/OuvragePrel/OPR0000034099
2013;Saint-Fargeau-Ponthierry;77407;Seine-et-Marne;77;11536.0;EAU POTABLE;Mesure directe;2.521911533824989;48.54111756993458;Contrôlé Niveau 1;Correcte;False;ASS COPRPIETAIRES HAMEAU DE VI LLERS;{'type': 'Point', 'crs': {'type': 'name', 'properties': {'name': 'urn:ogc:def:crs:OGC:1.3:CRS84'}}, 'coordinates': [2.521911533824989, 48.54111756993458]};https://id.eaufrance.fr/OuvragePrel/OPR0000034116
2013;Grisy-Suisnes;77217;Seine-et-Marne;77;111740.0;EAU POTABLE;Mesure directe;2.6683693967630058;48.67996100250105;Contrôlé Niveau 1;Correcte;False;GRISY SUISNES;{'type': 'Point', 'crs': {'type': 'name', 'properties': {'name': 'urn:ogc:def:crs:OGC:1.3:CRS84'}}, 'coordinates': [2.6683693967630058, 48.67996100250105]};https://id.eaufrance.fr/OuvragePrel/OPR0000034120
2013;Héricy;77226;Seine-et-Marne;77;359066.0;EAU POTABLE;Mesure directe;2.7838140855032223;48.44391537044566;Contrôlé Niveau 1;Correcte;False;HERICY;{'type': 'Point', 'crs': {'type': 'name', 'properties': {'name': 'urn:ogc:def:crs:OGC:1.3:CRS84'}}, 'coordinates': [2.7838140855032223, 48.44391537044566]};https://id.eaufrance.fr/OuvragePrel/OPR0000034121
2013;Samoreau;77442;Seine-et-Marne;77;13486.0;EAU POTABLE;Mesure directe;2.775130178067816;48.42050444731008;Contrôlé Niveau 1;Correcte;False;Samoreau 1;{'type': 'Point', 'crs': {'type': 'name', 'properties': {'name': 'urn:ogc:def:crs:OGC:1.3:CRS84'}}, 'coordinates': [2.775130178067816, 48.42050444731008]};https://id.eaufrance.fr/OuvragePrel/OPR0000034122
2013;Fontainebleau;77186;Seine-et-Marne;77;506032.0;EAU POTABLE;Mesure directe;2.664828061803973;48.42346202809249;Contrôlé Niveau 1;Correcte;False;FONTAINEBLEAU;{'type': 'Point', 'crs': {'type': 'name', 'properties': {'name': 'urn:ogc:def:crs:OGC:1.3:CRS84'}}, 'coordinates': [2.664828061803973, 48.42346202809249]};https://id.eaufrance.fr/OuvragePrel/OPR0000034123
2013;Fontainebleau;77186;Seine-et-Marne;77;506032.0;EAU POTABLE;Mesure directe;2.664828061803973;48.42346202809249;Contrôlé Niveau 1;Correcte;False;FONTAINEBLEAU;{'type': 'Point', 'crs': {'type': 'name', 'properties': {'name': 'urn:ogc:def:crs:OGC:1.3:CRS84'}}, 'coordinates': [2.664828061803973, 48.42346202809249]};https://id.eaufrance.fr/OuvragePrel/OPR0000034124
2013;Fontainebleau;77186;Seine-et-Marne;77;506032.0;EAU POTABLE;Mesure directe;2.664828061803973;48.42346202809249;Contrôlé Niveau 1;Correcte;False;FONTAINEBLEAU;{'type': 'Point', 'crs': {'type': 'name', 'properties': {'name': 'urn:ogc:def:crs:OGC:1.3:CRS84'}}, 'coordinates': [2.664828061803973, 48.42346202809249]};https://id.eaufrance.fr/OuvragePrel/OPR0000034125
2013;Fontainebleau;77186;Seine-et-Marne;77;2032.0;EAU POTABLE;Mesure directe;2.664828061803973;48.42346202809249;Contrôlé Niveau 1;Correcte;False;FONTAINEBLEAU;{'type': 'Point', 'crs': {'type': 'name', 'properties': {'name': 'urn:ogc:def:crs:OGC:1.3:CRS84'}}, 'coordinates': [2.664828061803973, 48.42346202809249]};https://id.eaufrance.fr/OuvragePrel/OPR0000034126
2013;Fontainebleau;77186;Seine-et-Marne;77;2032.0;EAU POTABLE;Mesure directe;2.664828061803973;48.42346202809249;Contrôlé Niveau 1;Correcte;False;FONTAINEBLEAU;{'type': 'Point', 'crs': {'type': 'name', 'properties': {'name': 'urn:ogc:def:crs:OGC:1.3:CRS84'}}, 'coordinates': [2.664828061803973, 48.42346202809249]};https://id.eaufrance.fr/OuvragePrel/OPR0000034127
2013;Fontainebleau;77186;Seine-et-Marne;77;3260.0;EAU POTABLE;Mesure directe;2.664828061803973;48.42346202809249;Contrôlé Niveau 1;Correcte;False;FONTAINEBLEAU;{'type': 'Point', 'crs': {'type': 'name', 'properties': {'name': 'urn:ogc:def:crs:OGC:1.3:CRS84'}}, 'coordinates': [2.664828061803973, 48.42346202809249]};https://id.eaufrance.fr/OuvragePrel/OPR0000034128
2013;Fontainebleau;77186;Seine-et-Marne;77;3260.0;EAU POTABLE;Mesure directe;2.664828061803973;48.42346202809249;Contrôlé Niveau 1;Correcte;False;FONTAINEBLEAU;{'type': 'Point', 'crs': {'type': 'name', 'properties': {'name': 'urn:ogc:def:crs:OGC:1.3:CRS84'}}, 'coordinates': [2.664828061803973, 48.42346202809249]};https://id.eaufrance.fr/OuvragePrel/OPR0000034129
2013;Dammarie-les-Lys;77152;Seine-et-Marne;77;6231.0;EAU POTABLE;Mesure directe;2.6183128093907757;48.514633109868726;Contrôlé Niveau 1;Correcte;False;DAMMARIE LES LYS;{'type': 'Point', 'crs': {'type': 'name', 'properties': {'name': 'urn:ogc:def:crs:OGC:1.3:CRS84'}}, 'coordinates': [2.6183128093907753, 48.514633109868726]};https://id.eaufrance.fr/OuvragePrel/OPR0000034130
2013;Dammarie-les-Lys;77152;Seine-et-Marne;77;6231.0;EAU POTABLE;Mesure directe;2.6183128093907757;48.514633109868726;Contrôlé Niveau 1;Correcte;False;DAMMARIE LES LYS;{'type': 'Point', 'crs': {'type': 'name', 'properties': {'name': 'urn:ogc:def:crs:OGC:1.3:CRS84'}}, 'coordinates': [2.6183128093907753, 48.514633109868726]};https://id.eaufrance.fr/OuvragePrel/OPR0000034131
2013;Dammarie-les-Lys;77152;Seine-et-Marne;77;6231.0;EAU POTABLE;Mesure directe;2.6183128093907757;48.514633109868726;Contrôlé Niveau 1;Correcte;False;DAMMARIE LES LYS;{'type': 'Point', 'crs': {'type': 'name', 'properties': {'name': 'urn:ogc:def:crs:OGC:1.3:CRS84'}}, 'coordinates': [2.6183128093907753, 48.514633109868726]};https://id.eaufrance.fr/OuvragePrel/OPR0000034132
2013;Dammarie-les-Lys;77152;Seine-et-Marne;77;6231.0;EAU POTABLE;Mesure directe;2.6183128093907757;48.514633109868726;Contrôlé Niveau 1;Correcte;False;DAMMARIE LES LYS;{'type': 'Point', 'crs': {'type': 'name', 'properties': {'name': 'urn:ogc:def:crs:OGC:1.3:CRS84'}}, 'coordinates': [2.6183128093907753, 48.514633109868726]};https://id.eaufrance.fr/OuvragePrel/OPR0000034133
2013;Mée-sur-Seine;77285;Seine-et-Marne;77;40152.0;EAU POTABLE;Mesure directe;2.629689441326819;48.54010590372347;Contrôlé Niveau 1;Correcte;False;MEE-SUR-SEINE;{'type': 'Point', 'crs': {'type': 'name', 'properties': {'name': 'urn:ogc:def:crs:OGC:1.3:CRS84'}}, 'coordinates': [2.629689441326819, 48.54010590372347]};https://id.eaufrance.fr/OuvragePrel/OPR0000034134
2013;Mée-sur-Seine;77285;Seine-et-Marne;77;33207.0;EAU POTABLE;Mesure directe;2.629689441326819;48.54010590372347;Contrôlé Niveau 1;Correcte;False;LE MEE SUR SEINE;{'type': 'Point', 'crs': {'type': 'name', 'properties': {'name': 'urn:ogc:def:crs:OGC:1.3:CRS84'}}, 'coordinates': [2.629689441326819, 48.54010590372347]};https://id.eaufrance.fr/OuvragePrel/OPR0000034135
2013;Nangis;77327;Seine-et-Marne;77;420039.0;EAU POTABLE;Mesure directe;3.0022002746361665;48.55767897214487;Contrôlé Niveau 1;Correcte;False;NANGIS;{'type': 'Point', 'crs': {'type': 'name', 'properties': {'name': 'urn:ogc:def:crs:OGC:1.3:CRS84'}}, 'coordinates': [3.0022002746361665, 48.55767897214487]};https://id.eaufrance.fr/OuvragePrel/OPR0000034136
2013;Livry-sur-Seine;77255;Seine-et-Marne;77;1248337.0;EAU POTABLE;Mesure directe;2.688286630564797;48.50395455554387;Contrôlé Niveau 1;Correcte;False;LIVRY SUR SEINE;{'type': 'Point', 'crs': {'type': 'name', 'properties': {'name': 'urn:ogc:def:crs:OGC:1.3:CRS84'}}, 'coordinates': [2.688286630564797, 48.50395455554387]};https://id.eaufrance.fr/OuvragePrel/OPR0000034137
2013;Livry-sur-Seine;77255;Seine-et-Marne;77;1001526.0;EAU POTABLE;Mesure directe;2.688286630564797;48.50395455554387;Contrôlé Niveau 1;Correcte;False;LIVRY SUR SEINE;{'type': 'Point', 'crs': {'type': 'name', 'properties': {'name': 'urn:ogc:def:crs:OGC:1.3:CRS84'}}, 'coordinates': [2.688286630564797, 48.50395455554387]};https://id.eaufrance.fr/OuvragePrel/OPR0000034138
2013;Vulaines-sur-Seine;77533;Seine-et-Marne;77;440134.0;EAU POTABLE;Mesure directe;2.7605267667376374;48.43341319604944;Contrôlé Niveau 1;Correcte;False;VULAINES SUR SEINE;{'type': 'Point', 'crs': {'type': 'name', 'properties': {'name': 'urn:ogc:def:crs:OGC:1.3:CRS84'}}, 'coordinates': [2.7605267667376374, 48.43341319604944]};https://id.eaufrance.fr/OuvragePrel/OPR0000034139
2013;Boissise-le-Roi;77040;Seine-et-Marne;77;95587.0;EAU POTABLE;Mesure directe;2.5733106330975097;48.51402966155578;Contrôlé Niveau 1;Correcte;False;BOISSISE LE ROI;{'type': 'Point', 'crs': {'type': 'name', 'properties': {'name': 'urn:ogc:def:crs:OGC:1.3:CRS84'}}, 'coordinates': [2.5733106330975097, 48.51402966155578]};https://id.eaufrance.fr/OuvragePrel/OPR0000034140
2013;Boissise-le-Roi;77040;Seine-et-Marne;77;95587.0;EAU POTABLE;Mesure directe;2.5733106330975097;48.51402966155578;Contrôlé Niveau 1;Correcte;False;BOISSISE LE ROI;{'type': 'Point', 'crs': {'type': 'name', 'properties': {'name': 'urn:ogc:def:crs:OGC:1.3:CRS84'}}, 'coordinates': [2.5733106330975097, 48.51402966155578]};https://id.eaufrance.fr/OuvragePrel/OPR0000034141
2013;Boissise-le-Roi;77040;Seine-et-Marne;77;95587.0;EAU POTABLE;Mesure directe;2.5733106330975097;48.51402966155578;Contrôlé Niveau 1;Correcte;False;BOISSISE LE ROI;{'type': 'Point', 'crs': {'type': 'name', 'properties': {'name': 'urn:ogc:def:crs:OGC:1.3:CRS84'}}, 'coordinates': [2.5733106330975097, 48.51402966155578]};https://id.eaufrance.fr/OuvragePrel/OPR0000034142
2013;Boissise-le-Roi;77040;Seine-et-Marne;77;95587.0;EAU POTABLE;Mesure directe;2.5733106330975097;48.51402966155578;Contrôlé Niveau 1;Correcte;False;BOISSISE LE ROI;{'type': 'Point', 'crs': {'type': 'name', 'properties': {'name': 'urn:ogc:def:crs:OGC:1.3:CRS84'}}, 'coordinates': [2.5733106330975097, 48.51402966155578]};https://id.eaufrance.fr/OuvragePrel/OPR0000034143
2013;Cély;77065;Seine-et-Marne;77;71389.0;EAU POTABLE;Mesure directe;2.5240451261139425;48.46010350047614;Contrôlé Niveau 1;Correcte;False;CELY;{'type': 'Point', 'crs': {'type': 'name', 'properties': {'name': 'urn:ogc:def:crs:OGC:1.3:CRS84'}}, 'coordinates': [2.5240451261139425, 48.46010350047614]};https://id.eaufrance.fr/OuvragePrel/OPR0000034144
2013;Chailly-en-Bière;77069;Seine-et-Marne;77;20722.0;EAU POTABLE;Mesure directe;2.610885360006005;48.47228195877322;Contrôlé Niveau 1;Correcte;False;Chailly en Bière 1 (le Fay);{'type': 'Point', 'crs': {'type': 'name', 'properties': {'name': 'urn:ogc:def:crs:OGC:1.3:CRS84'}}, 'coordinates': [2.610885360006005, 48.47228195877322]};https://id.eaufrance.fr/OuvragePrel/OPR0000034145
2013;Chailly-en-Bière;77069;Seine-et-Marne;77;20722.0;EAU POTABLE;Mesure directe;2.610885360006005;48.47228195877322;Contrôlé Niveau 1;Correcte;False;CHAILLY EN BIERE;{'type': 'Point', 'crs': {'type': 'name', 'properties': {'name': 'urn:ogc:def:crs:OGC:1.3:CRS84'}}, 'coordinates': [2.610885360006005, 48.47228195877322]};https://id.eaufrance.fr/OuvragePrel/OPR0000034146
2013;Chailly-en-Bière;77069;Seine-et-Marne;77;20722.0;EAU POTABLE;Mesure directe;2.610885360006005;48.47228195877322;Contrôlé Niveau 1;Correcte;False;CHAILLY EN BIERE;{'type': 'Point', 'crs': {'type': 'name', 'properties': {'name': 'urn:ogc:def:crs:OGC:1.3:CRS84'}}, 'coordinates': [2.610885360006005, 48.47228195877322]};https://id.eaufrance.fr/OuvragePrel/OPR0000034147
2013;Chailly-en-Bière;77069;Seine-et-Marne;77;20722.0;EAU POTABLE;Mesure directe;2.610885360006005;48.47228195877322;Contrôlé Niveau 1;Correcte;False;CHAILLY EN BIERE;{'type': 'Point', 'crs': {'type': 'name', 'properties': {'name': 'urn:ogc:def:crs:OGC:1.3:CRS84'}}, 'coordinates': [2.610885360006005, 48.47228195877322]};https://id.eaufrance.fr/OuvragePrel/OPR0000034148
2013;Fontaine-le-Port;77188;Seine-et-Marne;77;64303.0;EAU POTABLE;Mesure directe;2.775884607369894;48.47956457795571;Contrôlé Niveau 1;Correcte;False;FONTAINE LE PORT;{'type': 'Point', 'crs': {'type': 'name', 'properties': {'name': 'urn:ogc:def:crs:OGC:1.3:CRS84'}}, 'coordinates': [2.775884607369894, 48.47956457795571]};https://id.eaufrance.fr/OuvragePrel/OPR0000034149
2013;Guignes;77222;Seine-et-Marne;77;250652.0;EAU POTABLE;Mesure directe;2.7986534456710155;48.63635543075706;Contrôlé Niveau 1;Correcte;False;GUIGNES;{'type': 'Point', 'crs': {'type': 'name', 'properties': {'name': 'urn:ogc:def:crs:OGC:1.3:CRS84'}}, 'coordinates': [2.7986534456710155, 48.636355430757064]};https://id.eaufrance.fr/OuvragePrel/OPR0000034150
2013;Recloses;77386;Seine-et-Marne;77;46457.0;EAU POTABLE;Mesure directe;2.643283599202646;48.33899701676552;Contrôlé Niveau 1;Correcte;False;RECLOSES;{'type': 'Point', 'crs': {'type': 'name', 'properties': {'name': 'urn:ogc:def:crs:OGC:1.3:CRS84'}}, 'coordinates': [2.643283599202646, 48.33899701676552]};https://id.eaufrance.fr/OuvragePrel/OPR0000034151
2013;Villiers-en-Bière;77518;Seine-et-Marne;77;281659.0;EAU POTABLE;Mesure directe;2.6079258110887213;48.49641337183475;Contrôlé Niveau 1;Correcte;False;VILLIERS EN BIERE;{'type': 'Point', 'crs': {'type': 'name', 'properties': {'name': 'urn:ogc:def:crs:OGC:1.3:CRS84'}}, 'coordinates': [2.6079258110887213, 48.49641337183475]};https://id.eaufrance.fr/OuvragePrel/OPR0000034152
2013;Saint-Martin-en-Bière;77425;Seine-et-Marne;77;164649.0;EAU POTABLE;Mesure directe;2.5723702348010296;48.436038530204;Contrôlé Niveau 1;Correcte;False;ST MARTIN EN BIERE;{'type': 'Point', 'crs': {'type': 'name', 'properties': {'name': 'urn:ogc:def:crs:OGC:1.3:CRS84'}}, 'coordinates': [2.5723702348010296, 48.436038530204]};https://id.eaufrance.fr/OuvragePrel/OPR0000034153
2013;Noisy-sur-École;77339;Seine-et-Marne;77;93669.0;EAU POTABLE;Mesure directe;2.5062733907525576;48.37357256676363;Contrôlé Niveau 1;Correcte;False;NOISY SUR ECOLE;{'type': 'Point', 'crs': {'type': 'name', 'properties': {'name': 'urn:ogc:def:crs:OGC:1.3:CRS84'}}, 'coordinates': [2.5062733907525576, 48.37357256676363]};https://id.eaufrance.fr/OuvragePrel/OPR0000034154
2013;Nanteau-sur-Essonne;77328;Seine-et-Marne;77;135821.0;EAU POTABLE;Mesure directe;2.429398241931824;48.31842083251922;Contrôlé Niveau 1;Correcte;False;NANTEAU SUR ESSONNE;{'type': 'Point', 'crs': {'type': 'name', 'properties': {'name': 'urn:ogc:def:crs:OGC:1.3:CRS84'}}, 'coordinates': [2.429398241931824, 48.31842083251922]};https://id.eaufrance.fr/OuvragePrel/OPR0000034155
2013;Saint-Germain-Laxis;77410;Seine-et-Marne;77;356.0;EAU POTABLE;Mesure directe;2.70973801806661;48.589506002429886;Contrôlé Niveau 1;Correcte;False;ST GERMAIN LAXIS - STAT FERME BRIGY;{'type': 'Point', 'crs': {'type': 'name', 'properties': {'name': 'urn:ogc:def:crs:OGC:1.3:CRS84'}}, 'coordinates': [2.70973801806661, 48.589506002429886]};https://id.eaufrance.fr/OuvragePrel/OPR0000034156
2013;Moret-Loing-et-Orvanne;77316;Seine-et-Marne;77;155351.0;EAU POTABLE;Mesure directe;2.83843667312661;48.35444730072483;Contrôlé Niveau 1;Correcte;False;ECUELLES;{'type': 'Point', 'crs': {'type': 'name', 'properties': {'name': 'urn:ogc:def:crs:OGC:1.3:CRS84'}}, 'coordinates': [2.83843667312661, 48.35444730072483]};https://id.eaufrance.fr/OuvragePrel/OPR0000034157
2013;Moret-Loing-et-Orvanne;77316;Seine-et-Marne;77;62288.0;EAU POTABLE;Mesure directe;2.83843667312661;48.35444730072483;Contrôlé Niveau 1;Correcte;False;ECUELLES;{'type': 'Point', 'crs': {'type': 'name', 'properties': {'name': 'urn:ogc:def:crs:OGC:1.3:CRS84'}}, 'coordinates': [2.83843667312661, 48.35444730072483]};https://id.eaufrance.fr/OuvragePrel/OPR0000034158
2013;Grez-sur-Loing;77216;Seine-et-Marne;77;125594.0;EAU POTABLE;Mesure directe;2.6736029184464787;48.30777585868952;Contrôlé Niveau 1;Correcte;False;GREZ SUR LOING;{'type': 'Point', 'crs': {'type': 'name', 'properties': {'name': 'urn:ogc:def:crs:OGC:1.3:CRS84'}}, 'coordinates': [2.6736029184464787, 48.307775858689524]};https://id.eaufrance.fr/OuvragePrel/OPR0000034159
2013;Rochette;77389;Seine-et-Marne;77;73057.0;EAU POTABLE;Mesure directe;2.6598827424018494;48.50727061536988;Contrôlé Niveau 1;Correcte;False;LA ROCHETTE;{'type': 'Point', 'crs': {'type': 'name', 'properties': {'name': 'urn:ogc:def:crs:OGC:1.3:CRS84'}}, 'coordinates': [2.6598827424018494, 48.507270615369876]};https://id.eaufrance.fr/OuvragePrel/OPR0000034160
2013;Rochette;77389;Seine-et-Marne;77;73057.0;EAU POTABLE;Mesure directe;2.6598827424018494;48.50727061536988;Contrôlé Niveau 1;Correcte;False;LA ROCHETTE;{'type': 'Point', 'crs': {'type': 'name', 'properties': {'name': 'urn:ogc:def:crs:OGC:1.3:CRS84'}}, 'coordinates': [2.6598827424018494, 48.507270615369876]};https://id.eaufrance.fr/OuvragePrel/OPR0000034161
2013;Rochette;77389;Seine-et-Marne;77;73057.0;EAU POTABLE;Mesure directe;2.6598827424018494;48.50727061536988;Contrôlé Niveau 1;Correcte;False;LA ROCHETTE;{'type': 'Point', 'crs': {'type': 'name', 'properties': {'name': 'urn:ogc:def:crs:OGC:1.3:CRS84'}}, 'coordinates': [2.6598827424018494, 48.507270615369876]};https://id.eaufrance.fr/OuvragePrel/OPR0000034162
2013;Rochette;77389;Seine-et-Marne;77;73057.0;EAU POTABLE;Mesure directe;2.6598827424018494;48.50727061536988;Contrôlé Niveau 1;Correcte;False;LA ROCHETTE;{'type': 'Point', 'crs': {'type': 'name', 'properties': {'name': 'urn:ogc:def:crs:OGC:1.3:CRS84'}}, 'coordinates': [2.6598827424018494, 48.507270615369876]};https://id.eaufrance.fr/OuvragePrel/OPR0000034163
2013;Nangis;77327;Seine-et-Marne;77;44128.0;INDUSTRIE et ACTIVITES ECONOMIQUES (hors irrigation, hors énergie);Mesure directe;3.008524676586562;48.56395681404953;Contrôlé Niveau 1;Correcte;False;Lesaffre Forage de l'Est;{'type': 'Point', 'crs': {'type': 'name', 'properties': {'name': 'urn:ogc:def:crs:OGC:1.3:CRS84'}}, 'coordinates': [3.008524676586562, 48.56395681404953]};https://id.eaufrance.fr/OuvragePrel/OPR0000034165
2013;Chartrettes;77096;Seine-et-Marne;77;183302.0;EAU POTABLE;Mesure directe;2.7137158720932577;48.49589455739861;Contrôlé Niveau 1;Correcte;False;CHARTRETTES;{'type': 'Point', 'crs': {'type': 'name', 'properties': {'name': 'urn:ogc:def:crs:OGC:1.3:CRS84'}}, 'coordinates': [2.7137158720932577, 48.495894557398614]};https://id.eaufrance.fr/OuvragePrel/OPR0000034166
2013;Champeaux;77082;Seine-et-Marne;77;71455.0;EAU POTABLE;Mesure directe;2.8022585552451043;48.58678630543101;Contrôlé Niveau 1;Correcte;False;CHAMPEAUX;{'type': 'Point', 'crs': {'type': 'name', 'properties': {'name': 'urn:ogc:def:crs:OGC:1.3:CRS84'}}, 'coordinates': [2.8022585552451043, 48.58678630543101]};https://id.eaufrance.fr/OuvragePrel/OPR0000034167
2013;Chapelle-Gauthier;77086;Seine-et-Marne;77;62018.0;EAU POTABLE;Mesure directe;2.872922271916295;48.53358029012601;Contrôlé Niveau 1;Correcte;False;LA CHAPELLE GAUTHIER;{'type': 'Point', 'crs': {'type': 'name', 'properties': {'name': 'urn:ogc:def:crs:OGC:1.3:CRS84'}}, 'coordinates': [2.872922271916295, 48.53358029012601]};https://id.eaufrance.fr/OuvragePrel/OPR0000034168
2013;Courtomer;77138;Seine-et-Marne;77;26369.0;EAU POTABLE;Mesure directe;2.896891505478364;48.6595338171057;Contrôlé Niveau 1;Correcte;False;COURTOMER;{'type': 'Point', 'crs': {'type': 'name', 'properties': {'name': 'urn:ogc:def:crs:OGC:1.3:CRS84'}}, 'coordinates': [2.896891505478364, 48.6595338171057]};https://id.eaufrance.fr/OuvragePrel/OPR0000034169
2013;Tousson;77471;Seine-et-Marne;77;21828.0;EAU POTABLE;Mesure directe;2.4555299905146075;48.34529407374552;Contrôlé Niveau 1;Correcte;False;TOUSSON;{'type': 'Point', 'crs': {'type': 'name', 'properties': {'name': 'urn:ogc:def:crs:OGC:1.3:CRS84'}}, 'coordinates': [2.4555299905146075, 48.34529407374552]};https://id.eaufrance.fr/OuvragePrel/OPR0000034170
2013;Barbizon;77022;Seine-et-Marne;77;154204.0;EAU POTABLE;Mesure directe;2.602630808376209;48.447381633455336;Contrôlé Niveau 1;Correcte;False;BARBIZON;{'type': 'Point', 'crs': {'type': 'name', 'properties': {'name': 'urn:ogc:def:crs:OGC:1.3:CRS84'}}, 'coordinates': [2.6026308083762095, 48.447381633455336]};https://id.eaufrance.fr/OuvragePrel/OPR0000034171
2013;Grisy-Suisnes;77217;Seine-et-Marne;77;22100.0;EAU POTABLE;Mesure directe;2.6683693967630058;48.67996100250105;Contrôlé Niveau 1;Correcte;False;GRISY SUISNES;{'type': 'Point', 'crs': {'type': 'name', 'properties': {'name': 'urn:ogc:def:crs:OGC:1.3:CRS84'}}, 'coordinates': [2.6683693967630058, 48.67996100250105]};https://id.eaufrance.fr/OuvragePrel/OPR0000034172
2013;Livry-sur-Seine;77255;Seine-et-Marne;77;992740.0;EAU POTABLE;Mesure directe;2.688286630564797;48.50395455554387;Contrôlé Niveau 1;Correcte;False;LIVRY SUR SEINE;{'type': 'Point', 'crs': {'type': 'name', 'properties': {'name': 'urn:ogc:def:crs:OGC:1.3:CRS84'}}, 'coordinates': [2.688286630564797, 48.50395455554387]};https://id.eaufrance.fr/OuvragePrel/OPR0000034173
2013;Livry-sur-Seine;77255;Seine-et-Marne;77;1232810.0;EAU POTABLE;Mesure directe;2.688286630564797;48.50395455554387;Contrôlé Niveau 1;Correcte;False;LIVRY SUR SEINE;{'type': 'Point', 'crs': {'type': 'name', 'properties': {'name': 'urn:ogc:def:crs:OGC:1.3:CRS84'}}, 'coordinates': [2.688286630564797, 48.50395455554387]};https://id.eaufrance.fr/OuvragePrel/OPR0000034174
2013;Livry-sur-Seine;77255;Seine-et-Marne;77;1377460.0;EAU POTABLE;Mesure directe;2.688286630564797;48.50395455554387;Contrôlé Niveau 1;Correcte;False;LIVRY SUR SEINE;{'type': 'Point', 'crs': {'type': 'name', 'properties': {'name': 'urn:ogc:def:crs:OGC:1.3:CRS84'}}, 'coordinates': [2.688286630564797, 48.50395455554387]};https://id.eaufrance.fr/OuvragePrel/OPR0000034175
