Année;Commune;Code INSEE;Département;Numéro département;Volume;Usage;Mode obtention;Longitude;Latitude;Statut;Qualification;Prélèvement écrasant;Ouvrage;Geometrie;url_fiche
2022;Courances;91180;Essonne;91;215628.0;EAU POTABLE;Mesure directe;2.4821153887897545;48.44086408134628;Contrôlé Niveau 1;Correcte;False;COURANCES;{'type': 'Point', 'crs': {'type': 'name', 'properties': {'name': 'urn:ogc:def:crs:OGC:1.3:CRS84'}}, 'coordinates': [2.4821153887897545, 48.44086408134628]};https://id.eaufrance.fr/OuvragePrel/OPR0000033569
2022;Videlles;91654;Essonne;91;79021.0;EAU POTABLE;Mesure directe;2.422695901160969;48.46704539196834;Contrôlé Niveau 1;Correcte;False;VIDELLES 2;{'type': 'Point', 'crs': {'type': 'name', 'properties': {'name': 'urn:ogc:def:crs:OGC:1.3:CRS84'}}, 'coordinates': [2.422695901160969, 48.46704539196834]};https://id.eaufrance.fr/OuvragePrel/OPR0000033580
2022;Videlles;91654;Essonne;91;18338.0;EAU POTABLE;Mesure directe;2.422695901160969;48.46704539196834;Contrôlé Niveau 1;Correcte;False;VIDELLES 3;{'type': 'Point', 'crs': {'type': 'name', 'properties': {'name': 'urn:ogc:def:crs:OGC:1.3:CRS84'}}, 'coordinates': [2.422695901160969, 48.46704539196834]};https://id.eaufrance.fr/OuvragePrel/OPR0000033581
2022;Saint-Cyr-sous-Dourdan;91546;Essonne;91;359671.0;EAU POTABLE;Mesure directe;2.0361370287698755;48.56750155277794;Contrôlé Niveau 1;Correcte;False;ST CYR SOUS DOURDAN;{'type': 'Point', 'crs': {'type': 'name', 'properties': {'name': 'urn:ogc:def:crs:OGC:1.3:CRS84'}}, 'coordinates': [2.0361370287698755, 48.56750155277794]};https://id.eaufrance.fr/OuvragePrel/OPR0000033766
2022;Itteville;91315;Essonne;91;320825.0;EAU POTABLE;Mesure directe;2.34220487626838;48.514825079335225;Contrôlé Niveau 1;Correcte;False;ITTEVILLE;{'type': 'Point', 'crs': {'type': 'name', 'properties': {'name': 'urn:ogc:def:crs:OGC:1.3:CRS84'}}, 'coordinates': [2.3422048762683794, 48.514825079335225]};https://id.eaufrance.fr/OuvragePrel/OPR0000033779
2022;Itteville;91315;Essonne;91;543049.0;EAU POTABLE;Mesure directe;2.34220487626838;48.514825079335225;Contrôlé Niveau 1;Correcte;False;ITTEVILLE;{'type': 'Point', 'crs': {'type': 'name', 'properties': {'name': 'urn:ogc:def:crs:OGC:1.3:CRS84'}}, 'coordinates': [2.3422048762683794, 48.514825079335225]};https://id.eaufrance.fr/OuvragePrel/OPR0000033780
2022;Bouray-sur-Juine;91095;Essonne;91;972059.0;EAU POTABLE;Mesure directe;2.295767502781959;48.51139170348884;Contrôlé Niveau 1;Correcte;False;BOURAY SUR JUINE;{'type': 'Point', 'crs': {'type': 'name', 'properties': {'name': 'urn:ogc:def:crs:OGC:1.3:CRS84'}}, 'coordinates': [2.295767502781959, 48.51139170348884]};https://id.eaufrance.fr/OuvragePrel/OPR0000033784
2022;Itteville;91315;Essonne;91;657821.0;EAU POTABLE;Mesure directe;2.34220487626838;48.514825079335225;Contrôlé Niveau 1;Correcte;False;ITTEVILLE;{'type': 'Point', 'crs': {'type': 'name', 'properties': {'name': 'urn:ogc:def:crs:OGC:1.3:CRS84'}}, 'coordinates': [2.3422048762683794, 48.514825079335225]};https://id.eaufrance.fr/OuvragePrel/OPR0000033785
2022;Itteville;91315;Essonne;91;3003901.0;EAU POTABLE;Mesure directe;2.34220487626838;48.514825079335225;Contrôlé Niveau 1;Correcte;False;Synd  Hurepoix Itteville riv E  Essonne;{'type': 'Point', 'crs': {'type': 'name', 'properties': {'name': 'urn:ogc:def:crs:OGC:1.3:CRS84'}}, 'coordinates': [2.3422048762683794, 48.514825079335225]};https://id.eaufrance.fr/OuvragePrel/OPR0000033787
2022;Saint-Maurice-Montcouronne;91568;Essonne;91;294554.0;EAU POTABLE;Mesure directe;2.117433981271036;48.57459829530092;Contrôlé Niveau 1;Correcte;False;PITALE II;{'type': 'Point', 'crs': {'type': 'name', 'properties': {'name': 'urn:ogc:def:crs:OGC:1.3:CRS84'}}, 'coordinates': [2.117433981271036, 48.574598295300916]};https://id.eaufrance.fr/OuvragePrel/OPR0000033789
2022;Saint-Maurice-Montcouronne;91568;Essonne;91;498706.0;EAU POTABLE;Mesure directe;2.117433981271036;48.57459829530092;Contrôlé Niveau 1;Correcte;False;CREVECOEUR;{'type': 'Point', 'crs': {'type': 'name', 'properties': {'name': 'urn:ogc:def:crs:OGC:1.3:CRS84'}}, 'coordinates': [2.117433981271036, 48.574598295300916]};https://id.eaufrance.fr/OuvragePrel/OPR0000033790
2022;Maisse;91359;Essonne;91;145022.0;EAU POTABLE;Mesure directe;2.3688392232993305;48.3961029434732;Contrôlé Niveau 1;Correcte;False;MAISSE;{'type': 'Point', 'crs': {'type': 'name', 'properties': {'name': 'urn:ogc:def:crs:OGC:1.3:CRS84'}}, 'coordinates': [2.3688392232993305, 48.396102943473196]};https://id.eaufrance.fr/OuvragePrel/OPR0000034095
2022;Étampes;91223;Essonne;91;393325.0;EAU POTABLE;Mesure directe;2.15381132675954;48.42256007397478;Contrôlé Niveau 1;Correcte;False;COMMUNE D'ETAMPES;{'type': 'Point', 'crs': {'type': 'name', 'properties': {'name': 'urn:ogc:def:crs:OGC:1.3:CRS84'}}, 'coordinates': [2.1538113267595396, 48.42256007397478]};https://id.eaufrance.fr/OuvragePrel/OPR0000034096
2022;Angerville;91016;Essonne;91;76678.0;EAU POTABLE;Mesure directe;1.9980868491532653;48.31138185468669;Contrôlé Niveau 1;Correcte;False;ANGERVILLE;{'type': 'Point', 'crs': {'type': 'name', 'properties': {'name': 'urn:ogc:def:crs:OGC:1.3:CRS84'}}, 'coordinates': [1.9980868491532655, 48.31138185468669]};https://id.eaufrance.fr/OuvragePrel/OPR0000034100
2022;Angerville;91016;Essonne;91;76678.0;EAU POTABLE;Mesure directe;1.9980868491532653;48.31138185468669;Contrôlé Niveau 1;Correcte;False;ANGERVILLE;{'type': 'Point', 'crs': {'type': 'name', 'properties': {'name': 'urn:ogc:def:crs:OGC:1.3:CRS84'}}, 'coordinates': [1.9980868491532655, 48.31138185468669]};https://id.eaufrance.fr/OuvragePrel/OPR0000034101
2022;Boissy-le-Cutté;91080;Essonne;91;81261.0;EAU POTABLE;Mesure directe;2.284202535419537;48.47112402468273;Contrôlé Niveau 1;Correcte;False;BOISSY LE CUTTE;{'type': 'Point', 'crs': {'type': 'name', 'properties': {'name': 'urn:ogc:def:crs:OGC:1.3:CRS84'}}, 'coordinates': [2.284202535419537, 48.47112402468273]};https://id.eaufrance.fr/OuvragePrel/OPR0000034102
2022;Ormoy-la-Rivière;91469;Essonne;91;105349.0;EAU POTABLE;Mesure directe;2.159947391867877;48.402316459347176;Contrôlé Niveau 1;Correcte;False;Ormoy la rivière II;{'type': 'Point', 'crs': {'type': 'name', 'properties': {'name': 'urn:ogc:def:crs:OGC:1.3:CRS84'}}, 'coordinates': [2.1599473918678775, 48.402316459347176]};https://id.eaufrance.fr/OuvragePrel/OPR0000034103
2022;Gironville-sur-Essonne;91273;Essonne;91;111214.0;EAU POTABLE;Mesure directe;2.345352900242365;48.36548960355434;Contrôlé Niveau 1;Correcte;False;GIRONVILLE-SUR-ESSONNE;{'type': 'Point', 'crs': {'type': 'name', 'properties': {'name': 'urn:ogc:def:crs:OGC:1.3:CRS84'}}, 'coordinates': [2.345352900242365, 48.36548960355434]};https://id.eaufrance.fr/OuvragePrel/OPR0000034104
2022;Courdimanche-sur-Essonne;91184;Essonne;91;39498.0;EAU POTABLE;Mesure directe;2.37054644911488;48.42023493541191;Contrôlé Niveau 1;Correcte;False;PT D'EAU FICTIF 04891S;{'type': 'Point', 'crs': {'type': 'name', 'properties': {'name': 'urn:ogc:def:crs:OGC:1.3:CRS84'}}, 'coordinates': [2.37054644911488, 48.42023493541191]};https://id.eaufrance.fr/OuvragePrel/OPR0000034105
2022;Courdimanche-sur-Essonne;91184;Essonne;91;39498.0;EAU POTABLE;Mesure directe;2.37054644911488;48.42023493541191;Contrôlé Niveau 1;Correcte;False;STATION DE COURDIMANCHE;{'type': 'Point', 'crs': {'type': 'name', 'properties': {'name': 'urn:ogc:def:crs:OGC:1.3:CRS84'}}, 'coordinates': [2.37054644911488, 48.42023493541191]};https://id.eaufrance.fr/OuvragePrel/OPR0000034106
2022;Corbeil-Essonnes;91174;Essonne;91;3618921.0;EAU POTABLE;Mesure directe;2.4675176446544924;48.59725141555544;Contrôlé Niveau 1;Correcte;False;EXHAURE CORBEIL ESSONNES;{'type': 'Point', 'crs': {'type': 'name', 'properties': {'name': 'urn:ogc:def:crs:OGC:1.3:CRS84'}}, 'coordinates': [2.4675176446544924, 48.59725141555544]};https://id.eaufrance.fr/OuvragePrel/OPR0000034110
2022;Étampes;91223;Essonne;91;1390136.0;EAU POTABLE;Mesure directe;2.15381132675954;48.42256007397478;Contrôlé Niveau 1;Correcte;False;ETAMPES;{'type': 'Point', 'crs': {'type': 'name', 'properties': {'name': 'urn:ogc:def:crs:OGC:1.3:CRS84'}}, 'coordinates': [2.1538113267595396, 48.42256007397478]};https://id.eaufrance.fr/OuvragePrel/OPR0000034111
2022;Boissy-le-Sec;91081;Essonne;91;155855.0;EAU POTABLE;Mesure directe;2.0922681013969187;48.4864805463331;Contrôlé Niveau 1;Correcte;False;L'épine de Lavenelle;{'type': 'Point', 'crs': {'type': 'name', 'properties': {'name': 'urn:ogc:def:crs:OGC:1.3:CRS84'}}, 'coordinates': [2.0922681013969187, 48.4864805463331]};https://id.eaufrance.fr/OuvragePrel/OPR0000034115
2022;Saintry-sur-Seine;91577;Essonne;91;1622041.0;EAU POTABLE;Mesure directe;2.4940541641541785;48.59464614766978;Contrôlé Niveau 1;Correcte;False;SAINTRY - STATION LA CHAISE AU X PRETRES EXHAURE;{'type': 'Point', 'crs': {'type': 'name', 'properties': {'name': 'urn:ogc:def:crs:OGC:1.3:CRS84'}}, 'coordinates': [2.4940541641541785, 48.59464614766978]};https://id.eaufrance.fr/OuvragePrel/OPR0000034117
2022;Milly-la-Forêt;91405;Essonne;91;102031.0;EAU POTABLE;Mesure directe;2.431546998026274;48.39661946829858;Contrôlé Niveau 1;Correcte;False;MILLY - STATION 2 ROUTE D'ETAM PES;{'type': 'Point', 'crs': {'type': 'name', 'properties': {'name': 'urn:ogc:def:crs:OGC:1.3:CRS84'}}, 'coordinates': [2.431546998026274, 48.39661946829858]};https://id.eaufrance.fr/OuvragePrel/OPR0000034178
2022;Nainville-les-Roches;91441;Essonne;91;83349.0;EAU POTABLE;Mesure directe;2.49710791753707;48.50520309804753;Contrôlé Niveau 1;Correcte;False;STATION DE NAINVILLE 3 DN100;{'type': 'Point', 'crs': {'type': 'name', 'properties': {'name': 'urn:ogc:def:crs:OGC:1.3:CRS84'}}, 'coordinates': [2.49710791753707, 48.50520309804753]};https://id.eaufrance.fr/OuvragePrel/OPR0000034188
2022;Milly-la-Forêt;91405;Essonne;91;265643.0;EAU POTABLE;Mesure directe;2.431546998026274;48.39661946829858;Contrôlé Niveau 1;Correcte;False;MILLY - STATION 3 ROUTE D'ETAM PES;{'type': 'Point', 'crs': {'type': 'name', 'properties': {'name': 'urn:ogc:def:crs:OGC:1.3:CRS84'}}, 'coordinates': [2.431546998026274, 48.39661946829858]};https://id.eaufrance.fr/OuvragePrel/OPR0000034192
2022;Baulne;91047;Essonne;91;778010.0;EAU POTABLE;Mesure directe;2.37761614253632;48.49501616529548;Contrôlé Niveau 1;Correcte;False;BAULNE;{'type': 'Point', 'crs': {'type': 'name', 'properties': {'name': 'urn:ogc:def:crs:OGC:1.3:CRS84'}}, 'coordinates': [2.3776161425363194, 48.49501616529548]};https://id.eaufrance.fr/OuvragePrel/OPR0000034194
2022;Saclas;91533;Essonne;91;112263.0;EAU POTABLE;Mesure directe;2.1098124832164835;48.35769035063522;Contrôlé Niveau 1;Correcte;False;SACLAS;{'type': 'Point', 'crs': {'type': 'name', 'properties': {'name': 'urn:ogc:def:crs:OGC:1.3:CRS84'}}, 'coordinates': [2.1098124832164835, 48.35769035063522]};https://id.eaufrance.fr/OuvragePrel/OPR0000034220
2022;Plessis-Saint-Benoist;91495;Essonne;91;27872.0;EAU POTABLE;Mesure directe;2.0057711678021564;48.44496477386403;Contrôlé Niveau 1;Correcte;False;PLESSIS-SAINT-BENOIST;{'type': 'Point', 'crs': {'type': 'name', 'properties': {'name': 'urn:ogc:def:crs:OGC:1.3:CRS84'}}, 'coordinates': [2.0057711678021564, 48.44496477386403]};https://id.eaufrance.fr/OuvragePrel/OPR0000034233
2022;Méréville;91390;Essonne;91;245885.0;EAU POTABLE;Mesure directe;2.0819499955977623;48.31982860094766;Contrôlé Niveau 1;Correcte;False;MEREVILLE;{'type': 'Point', 'crs': {'type': 'name', 'properties': {'name': 'urn:ogc:def:crs:OGC:1.3:CRS84'}}, 'coordinates': [2.0819499955977623, 48.31982860094766]};https://id.eaufrance.fr/OuvragePrel/OPR0000034242
2022;Bois-Herpin;91075;Essonne;91;870095.0;EAU POTABLE;Mesure directe;2.2475302644540323;48.374976684629154;Contrôlé Niveau 1;Correcte;False;BOIS HERPIN;{'type': 'Point', 'crs': {'type': 'name', 'properties': {'name': 'urn:ogc:def:crs:OGC:1.3:CRS84'}}, 'coordinates': [2.2475302644540323, 48.374976684629154]};https://id.eaufrance.fr/OuvragePrel/OPR0000034259
2022;Forêt-Sainte-Croix;91248;Essonne;91;44698.0;EAU POTABLE;Mesure directe;2.227499253734833;48.38322191604916;Contrôlé Niveau 1;Correcte;False;Argentière F4;{'type': 'Point', 'crs': {'type': 'name', 'properties': {'name': 'urn:ogc:def:crs:OGC:1.3:CRS84'}}, 'coordinates': [2.227499253734833, 48.38322191604916]};https://id.eaufrance.fr/OuvragePrel/OPR0000034260
2022;Vigneux-sur-Seine;91657;Essonne;91;8386870.0;EAU POTABLE;Mesure directe;2.4207095074737484;48.70203325291013;Contrôlé Niveau 1;Correcte;False;VIGNEUX - USINE ESP GROUPES EX HAURE PV1 PV2 PV3;{'type': 'Point', 'crs': {'type': 'name', 'properties': {'name': 'urn:ogc:def:crs:OGC:1.3:CRS84'}}, 'coordinates': [2.4207095074737484, 48.70203325291013]};https://id.eaufrance.fr/OuvragePrel/OPR0000034262
2022;Morsang-sur-Seine;91435;Essonne;91;249265.0;EAU POTABLE;Mesure directe;2.5008212362937075;48.577476956050006;Contrôlé Niveau 1;Correcte;False;Prise d'eau usine de Morsang s ur Seine;{'type': 'Point', 'crs': {'type': 'name', 'properties': {'name': 'urn:ogc:def:crs:OGC:1.3:CRS84'}}, 'coordinates': [2.5008212362937075, 48.577476956050006]};https://id.eaufrance.fr/OuvragePrel/OPR0000034263
2022;Viry-Châtillon;91687;Essonne;91;1533862.0;EAU POTABLE;Mesure directe;2.373120857711412;48.666359918226206;Contrôlé Niveau 1;Correcte;False;VIRY - USINE ESP EXHAURE TR1;{'type': 'Point', 'crs': {'type': 'name', 'properties': {'name': 'urn:ogc:def:crs:OGC:1.3:CRS84'}}, 'coordinates': [2.3731208577114122, 48.666359918226206]};https://id.eaufrance.fr/OuvragePrel/OPR0000034264
2022;Viry-Châtillon;91687;Essonne;91;16436470.0;EAU POTABLE;Mesure directe;2.373120857711412;48.666359918226206;Contrôlé Niveau 1;Correcte;False;VIRY - USINE ESP EXHAURE TR2;{'type': 'Point', 'crs': {'type': 'name', 'properties': {'name': 'urn:ogc:def:crs:OGC:1.3:CRS84'}}, 'coordinates': [2.3731208577114122, 48.666359918226206]};https://id.eaufrance.fr/OuvragePrel/OPR0000034265
2022;Viry-Châtillon;91687;Essonne;91;593310.0;EAU POTABLE;Mesure directe;2.373120857711412;48.666359918226206;Contrôlé Niveau 1;Correcte;False;VIRY CHATILLON;{'type': 'Point', 'crs': {'type': 'name', 'properties': {'name': 'urn:ogc:def:crs:OGC:1.3:CRS84'}}, 'coordinates': [2.3731208577114122, 48.666359918226206]};https://id.eaufrance.fr/OuvragePrel/OPR0000034266
2022;Viry-Châtillon;91687;Essonne;91;766997.0;EAU POTABLE;Mesure directe;2.373120857711412;48.666359918226206;Contrôlé Niveau 1;Correcte;False;VIRY CHATILLON;{'type': 'Point', 'crs': {'type': 'name', 'properties': {'name': 'urn:ogc:def:crs:OGC:1.3:CRS84'}}, 'coordinates': [2.3731208577114122, 48.666359918226206]};https://id.eaufrance.fr/OuvragePrel/OPR0000034267
2022;Viry-Châtillon;91687;Essonne;91;667235.0;EAU POTABLE;Mesure directe;2.373120857711412;48.666359918226206;Contrôlé Niveau 1;Correcte;False;VIRY CHATILLON;{'type': 'Point', 'crs': {'type': 'name', 'properties': {'name': 'urn:ogc:def:crs:OGC:1.3:CRS84'}}, 'coordinates': [2.3731208577114122, 48.666359918226206]};https://id.eaufrance.fr/OuvragePrel/OPR0000034268
2022;Morsang-sur-Seine;91435;Essonne;91;607048.0;EAU POTABLE;Mesure directe;2.5008212362937075;48.577476956050006;Contrôlé Niveau 1;Correcte;False;MORSANG SUR SEINE;{'type': 'Point', 'crs': {'type': 'name', 'properties': {'name': 'urn:ogc:def:crs:OGC:1.3:CRS84'}}, 'coordinates': [2.5008212362937075, 48.577476956050006]};https://id.eaufrance.fr/OuvragePrel/OPR0000034276
2022;Morsang-sur-Seine;91435;Essonne;91;1203500.0;EAU POTABLE;Mesure directe;2.5008212362937075;48.577476956050006;Contrôlé Niveau 1;Correcte;False;MORSANG SUR SEINE;{'type': 'Point', 'crs': {'type': 'name', 'properties': {'name': 'urn:ogc:def:crs:OGC:1.3:CRS84'}}, 'coordinates': [2.5008212362937075, 48.577476956050006]};https://id.eaufrance.fr/OuvragePrel/OPR0000034277
2022;Viry-Châtillon;91687;Essonne;91;594208.0;EAU POTABLE;Mesure directe;2.373120857711412;48.666359918226206;Contrôlé Niveau 1;Correcte;False;VIRY CHATILLON;{'type': 'Point', 'crs': {'type': 'name', 'properties': {'name': 'urn:ogc:def:crs:OGC:1.3:CRS84'}}, 'coordinates': [2.3731208577114122, 48.666359918226206]};https://id.eaufrance.fr/OuvragePrel/OPR0000034278
2022;Viry-Châtillon;91687;Essonne;91;471041.0;EAU POTABLE;Mesure directe;2.373120857711412;48.666359918226206;Contrôlé Niveau 1;Correcte;False;VIRY CHATILLON;{'type': 'Point', 'crs': {'type': 'name', 'properties': {'name': 'urn:ogc:def:crs:OGC:1.3:CRS84'}}, 'coordinates': [2.3731208577114122, 48.666359918226206]};https://id.eaufrance.fr/OuvragePrel/OPR0000034279
2022;Morsang-sur-Seine;91435;Essonne;91;36877511.0;EAU POTABLE;Mesure directe;2.5008212362937075;48.577476956050006;Contrôlé Niveau 1;Correcte;False;MORSANG - USINE ESP EXHAURE 12 00;{'type': 'Point', 'crs': {'type': 'name', 'properties': {'name': 'urn:ogc:def:crs:OGC:1.3:CRS84'}}, 'coordinates': [2.5008212362937075, 48.577476956050006]};https://id.eaufrance.fr/OuvragePrel/OPR0000034280
2022;Morsang-sur-Seine;91435;Essonne;91;2396030.0;EAU POTABLE;Mesure directe;2.5008212362937075;48.577476956050006;Contrôlé Niveau 1;Correcte;False;MORSANG - USINE ESP EXHAURE 20 0;{'type': 'Point', 'crs': {'type': 'name', 'properties': {'name': 'urn:ogc:def:crs:OGC:1.3:CRS84'}}, 'coordinates': [2.5008212362937075, 48.577476956050006]};https://id.eaufrance.fr/OuvragePrel/OPR0000034281
2022;Boussy-Saint-Antoine;91097;Essonne;91;92244.0;EAU POTABLE;Mesure directe;2.534686949144138;48.68929691219027;Contrôlé Niveau 1;Correcte;False;USINE PERIGNY - Forage Boussy;{'type': 'Point', 'crs': {'type': 'name', 'properties': {'name': 'urn:ogc:def:crs:OGC:1.3:CRS84'}}, 'coordinates': [2.534686949144138, 48.68929691219027]};https://id.eaufrance.fr/OuvragePrel/OPR0000034282
2022;Blandy;91067;Essonne;91;7049.0;EAU POTABLE;Mesure directe;2.254751470477788;48.320544201188696;Contrôlé Niveau 1;Correcte;False;BLANDY LES OUCHES;{'type': 'Point', 'crs': {'type': 'name', 'properties': {'name': 'urn:ogc:def:crs:OGC:1.3:CRS84'}}, 'coordinates': [2.254751470477788, 48.320544201188696]};https://id.eaufrance.fr/OuvragePrel/OPR0000036496
2022;Orsay;91471;Essonne;91;470291.0;EAU POTABLE;Mesure directe;2.1912688885147302;48.697199866338025;Contrôlé Niveau 1;Correcte;False;ORSAY - RESERVOIR RIVE GAUCHE  EXHAURE;{'type': 'Point', 'crs': {'type': 'name', 'properties': {'name': 'urn:ogc:def:crs:OGC:1.3:CRS84'}}, 'coordinates': [2.1912688885147302, 48.697199866338025]};https://id.eaufrance.fr/OuvragePrel/OPR0000036500
2022;Chalo-Saint-Mars;91130;Essonne;91;78229.0;EAU POTABLE;Mesure directe;2.057576743489681;48.41571305515494;Contrôlé Niveau 1;Correcte;False;CHALO'-ST-MARS_BOUTARD;{'type': 'Point', 'crs': {'type': 'name', 'properties': {'name': 'urn:ogc:def:crs:OGC:1.3:CRS84'}}, 'coordinates': [2.0575767434896806, 48.41571305515494]};https://id.eaufrance.fr/OuvragePrel/OPR0000036501
2022;Chalo-Saint-Mars;91130;Essonne;91;83353.0;EAU POTABLE;Mesure directe;2.057576743489681;48.41571305515494;Contrôlé Niveau 1;Correcte;False;CHALO-ST-MARS_TRONCHET 1;{'type': 'Point', 'crs': {'type': 'name', 'properties': {'name': 'urn:ogc:def:crs:OGC:1.3:CRS84'}}, 'coordinates': [2.0575767434896806, 48.41571305515494]};https://id.eaufrance.fr/OuvragePrel/OPR0000036502
2022;Souzy-la-Briche;91602;Essonne;91;45762.0;EAU POTABLE;Mesure directe;2.155261467127512;48.52505879015945;Contrôlé Niveau 1;Correcte;False;SOUZY-LA-BRICHE;{'type': 'Point', 'crs': {'type': 'name', 'properties': {'name': 'urn:ogc:def:crs:OGC:1.3:CRS84'}}, 'coordinates': [2.155261467127512, 48.52505879015945]};https://id.eaufrance.fr/OuvragePrel/OPR0000036504
2022;Souzy-la-Briche;91602;Essonne;91;45762.0;EAU POTABLE;Mesure directe;2.155261467127512;48.52505879015945;Contrôlé Niveau 1;Correcte;False;SOUZY LA BRICHE;{'type': 'Point', 'crs': {'type': 'name', 'properties': {'name': 'urn:ogc:def:crs:OGC:1.3:CRS84'}}, 'coordinates': [2.155261467127512, 48.52505879015945]};https://id.eaufrance.fr/OuvragePrel/OPR0000036505
2022;Chalou-Moulineux;91131;Essonne;91;47963.0;EAU POTABLE;Mesure directe;2.022770540752417;48.381043859924674;Contrôlé Niveau 1;Correcte;False;CHALOU MOULINEUX;{'type': 'Point', 'crs': {'type': 'name', 'properties': {'name': 'urn:ogc:def:crs:OGC:1.3:CRS84'}}, 'coordinates': [2.022770540752417, 48.381043859924674]};https://id.eaufrance.fr/OuvragePrel/OPR0000036506
2022;Corbreuse;91175;Essonne;91;38132.0;EAU POTABLE;Mesure directe;1.959622387772102;48.50072278360457;Contrôlé Niveau 1;Correcte;False;CORBREUSE;{'type': 'Point', 'crs': {'type': 'name', 'properties': {'name': 'urn:ogc:def:crs:OGC:1.3:CRS84'}}, 'coordinates': [1.959622387772102, 48.50072278360457]};https://id.eaufrance.fr/OuvragePrel/OPR0000036507
2022;Boigneville;91069;Essonne;91;32755.0;EAU POTABLE;Mesure directe;2.36129247613955;48.32802904148403;Contrôlé Niveau 1;Correcte;False;BOIGNEVILLE;{'type': 'Point', 'crs': {'type': 'name', 'properties': {'name': 'urn:ogc:def:crs:OGC:1.3:CRS84'}}, 'coordinates': [2.3612924761395506, 48.32802904148403]};https://id.eaufrance.fr/OuvragePrel/OPR0000036508
2022;Moigny-sur-École;91408;Essonne;91;18450.0;IRRIGATION;Mesure directe;2.4544544758535527;48.44571196153401;Contrôlé Niveau 1;Correcte;False;LACHENAIT;{'type': 'Point', 'crs': {'type': 'name', 'properties': {'name': 'urn:ogc:def:crs:OGC:1.3:CRS84'}}, 'coordinates': [2.4544544758535527, 48.44571196153401]};https://id.eaufrance.fr/OuvragePrel/OPR0000036635
2022;Estouches;91222;Essonne;91;31792.0;IRRIGATION;Mesure directe;2.132306173932602;48.30949107668207;Contrôlé Niveau 1;Correcte;False;EARL POINTEAU PHILIPPE;{'type': 'Point', 'crs': {'type': 'name', 'properties': {'name': 'urn:ogc:def:crs:OGC:1.3:CRS84'}}, 'coordinates': [2.132306173932602, 48.309491076682065]};https://id.eaufrance.fr/OuvragePrel/OPR0000036636
2022;Champcueil;91135;Essonne;91;3309.0;IRRIGATION;Mesure directe;2.471381206286086;48.4850306871182;Contrôlé Niveau 1;Correcte;False;Arjolidoquet;{'type': 'Point', 'crs': {'type': 'name', 'properties': {'name': 'urn:ogc:def:crs:OGC:1.3:CRS84'}}, 'coordinates': [2.471381206286086, 48.4850306871182]};https://id.eaufrance.fr/OuvragePrel/OPR0000036688
2022;Puiselet-le-Marais;91508;Essonne;91;102268.0;IRRIGATION;Mesure directe;2.2722370680559334;48.408567316537805;Contrôlé Niveau 1;Correcte;False;LEMAIRE EARL DU PETIT MARAIS;{'type': 'Point', 'crs': {'type': 'name', 'properties': {'name': 'urn:ogc:def:crs:OGC:1.3:CRS84'}}, 'coordinates': [2.2722370680559334, 48.408567316537805]};https://id.eaufrance.fr/OuvragePrel/OPR0000036689
2022;Saint-Escobille;91547;Essonne;91;40620.0;IRRIGATION;Mesure directe;1.9853149464044533;48.4339369871889;Contrôlé Niveau 1;Correcte;False;SCEA AGRISEB;{'type': 'Point', 'crs': {'type': 'name', 'properties': {'name': 'urn:ogc:def:crs:OGC:1.3:CRS84'}}, 'coordinates': [1.9853149464044533, 48.4339369871889]};https://id.eaufrance.fr/OuvragePrel/OPR0000036820
2022;Méréville;91390;Essonne;91;137322.0;IRRIGATION;Mesure directe;2.237964665034787;48.28382816400299;Contrôlé Niveau 1;Correcte;False;GAEC DU VALVERT;{'type': 'Point', 'crs': {'type': 'name', 'properties': {'name': 'urn:ogc:def:crs:OGC:1.3:CRS84'}}, 'coordinates': [2.237964665034787, 48.28382816400299]};https://id.eaufrance.fr/OuvragePrel/OPR0000037098
2022;Angerville;91016;Essonne;91;13660.0;IRRIGATION;Mesure directe;1.9690990764159515;48.30394404128089;Contrôlé Niveau 1;Correcte;False;MME QUINTON LALUQUE MARIE THER ES;{'type': 'Point', 'crs': {'type': 'name', 'properties': {'name': 'urn:ogc:def:crs:OGC:1.3:CRS84'}}, 'coordinates': [1.9690990764159515, 48.30394404128089]};https://id.eaufrance.fr/OuvragePrel/OPR0000037252
2022;Boigneville;91069;Essonne;91;72335.0;IRRIGATION;Mesure directe;2.359719328752917;48.324417873892784;Contrôlé Niveau 1;Correcte;False;VALLEE FRANCOIS T;{'type': 'Point', 'crs': {'type': 'name', 'properties': {'name': 'urn:ogc:def:crs:OGC:1.3:CRS84'}}, 'coordinates': [2.359719328752917, 48.324417873892784]};https://id.eaufrance.fr/OuvragePrel/OPR0000037583
2022;Arrancourt;91022;Essonne;91;62602.0;IRRIGATION;Mesure directe;2.135931065735059;48.31380951613629;Contrôlé Niveau 1;Correcte;False;GAEC GERMI;{'type': 'Point', 'crs': {'type': 'name', 'properties': {'name': 'urn:ogc:def:crs:OGC:1.3:CRS84'}}, 'coordinates': [2.135931065735059, 48.31380951613629]};https://id.eaufrance.fr/OuvragePrel/OPR0000037646
2022;Auvernaux;91037;Essonne;91;137700.0;IRRIGATION;Mesure directe;2.491265973816516;48.52637346022782;Contrôlé Niveau 1;Correcte;False;EARL GALPIN ASCAL;{'type': 'Point', 'crs': {'type': 'name', 'properties': {'name': 'urn:ogc:def:crs:OGC:1.3:CRS84'}}, 'coordinates': [2.4912659738165157, 48.52637346022782]};https://id.eaufrance.fr/OuvragePrel/OPR0000037677
2022;Saint-Escobille;91547;Essonne;91;65796.0;IRRIGATION;Mesure directe;1.951955626469157;48.41654328078753;Contrôlé Niveau 1;Correcte;False;SAINT ESCOBILLE - LEGENDRE Fab ien;{'type': 'Point', 'crs': {'type': 'name', 'properties': {'name': 'urn:ogc:def:crs:OGC:1.3:CRS84'}}, 'coordinates': [1.9519556264691575, 48.41654328078753]};https://id.eaufrance.fr/OuvragePrel/OPR0000037679
2022;Buno-Bonnevaux;91121;Essonne;91;117176.0;IRRIGATION;Mesure directe;2.426128005777532;48.35999154463211;Contrôlé Niveau 1;Correcte;False;SCEA DE LA BROSSE;{'type': 'Point', 'crs': {'type': 'name', 'properties': {'name': 'urn:ogc:def:crs:OGC:1.3:CRS84'}}, 'coordinates': [2.4261280057775316, 48.35999154463211]};https://id.eaufrance.fr/OuvragePrel/OPR0000037680
2022;Congerville-Thionville;91613;Essonne;91;228200.0;IRRIGATION;Mesure directe;1.992051603470809;48.397807525161845;Contrôlé Niveau 1;Correcte;False;GAEC BENOIST ET EARL DU HAYE;{'type': 'Point', 'crs': {'type': 'name', 'properties': {'name': 'urn:ogc:def:crs:OGC:1.3:CRS84'}}, 'coordinates': [1.9920516034708091, 48.397807525161845]};https://id.eaufrance.fr/OuvragePrel/OPR0000037681
2022;Angerville;91016;Essonne;91;99276.0;IRRIGATION;Mesure directe;2.009078165967506;48.31234767880175;Contrôlé Niveau 1;Correcte;False;MR DUPUIS BRUNO;{'type': 'Point', 'crs': {'type': 'name', 'properties': {'name': 'urn:ogc:def:crs:OGC:1.3:CRS84'}}, 'coordinates': [2.009078165967506, 48.31234767880175]};https://id.eaufrance.fr/OuvragePrel/OPR0000037682
2022;Méréville;91390;Essonne;91;138115.0;IRRIGATION;Mesure directe;2.0749576614869496;48.32007008049247;Contrôlé Niveau 1;Correcte;False;EARL CAILLETTE LAUNAY;{'type': 'Point', 'crs': {'type': 'name', 'properties': {'name': 'urn:ogc:def:crs:OGC:1.3:CRS84'}}, 'coordinates': [2.0749576614869496, 48.32007008049247]};https://id.eaufrance.fr/OuvragePrel/OPR0000037683
2022;Congerville-Thionville;91613;Essonne;91;52323.0;IRRIGATION;Mesure directe;1.98719737371898;48.38678033037891;Contrôlé Niveau 1;Correcte;False;GI EARL SAGOT VIVIEN-SAGOT EMM ANUEL;{'type': 'Point', 'crs': {'type': 'name', 'properties': {'name': 'urn:ogc:def:crs:OGC:1.3:CRS84'}}, 'coordinates': [1.98719737371898, 48.38678033037891]};https://id.eaufrance.fr/OuvragePrel/OPR0000037684
2022;Baulne;91047;Essonne;91;141826.0;IRRIGATION;Mesure directe;2.3798153924761105;48.4956262956558;Contrôlé Niveau 1;Correcte;False;EARL VDH / M. BRUNET J. Paul;{'type': 'Point', 'crs': {'type': 'name', 'properties': {'name': 'urn:ogc:def:crs:OGC:1.3:CRS84'}}, 'coordinates': [2.3798153924761105, 48.4956262956558]};https://id.eaufrance.fr/OuvragePrel/OPR0000037686
2022;Milly-la-Forêt;91405;Essonne;91;7907.0;IRRIGATION;Mesure directe;2.472440655402613;48.41193001752874;Contrôlé Niveau 1;Correcte;False;DARBONNE AROMATIQUE;{'type': 'Point', 'crs': {'type': 'name', 'properties': {'name': 'urn:ogc:def:crs:OGC:1.3:CRS84'}}, 'coordinates': [2.472440655402613, 48.41193001752874]};https://id.eaufrance.fr/OuvragePrel/OPR0000037687
2022;Monnerville;91414;Essonne;91;109732.0;IRRIGATION;Mesure directe;2.044932097082464;48.35920548976738;Contrôlé Niveau 1;Correcte;False;DUPONT Fréderic;{'type': 'Point', 'crs': {'type': 'name', 'properties': {'name': 'urn:ogc:def:crs:OGC:1.3:CRS84'}}, 'coordinates': [2.044932097082464, 48.35920548976738]};https://id.eaufrance.fr/OuvragePrel/OPR0000037688
2022;Angerville;91016;Essonne;91;69571.0;IRRIGATION;Mesure directe;1.980695416431301;48.30407147910479;Contrôlé Niveau 1;Correcte;False;EARL D'OUESTREVILLE;{'type': 'Point', 'crs': {'type': 'name', 'properties': {'name': 'urn:ogc:def:crs:OGC:1.3:CRS84'}}, 'coordinates': [1.980695416431301, 48.304071479104785]};https://id.eaufrance.fr/OuvragePrel/OPR0000037689
2022;Boissy-la-Rivière;91079;Essonne;91;59194.0;IRRIGATION;Mesure directe;2.161048024795901;48.37985171239597;Contrôlé Niveau 1;Correcte;False;GI DE SMET HERVE ET LUCIENNE;{'type': 'Point', 'crs': {'type': 'name', 'properties': {'name': 'urn:ogc:def:crs:OGC:1.3:CRS84'}}, 'coordinates': [2.161048024795901, 48.37985171239597]};https://id.eaufrance.fr/OuvragePrel/OPR0000037691
2022;Chevannes;91159;Essonne;91;99817.0;IRRIGATION;Mesure directe;2.438172032233328;48.54445002186979;Contrôlé Niveau 1;Correcte;False;Chevannes;{'type': 'Point', 'crs': {'type': 'name', 'properties': {'name': 'urn:ogc:def:crs:OGC:1.3:CRS84'}}, 'coordinates': [2.4381720322333273, 48.54445002186979]};https://id.eaufrance.fr/OuvragePrel/OPR0000037692
2022;Soisy-sur-École;91599;Essonne;91;102018.0;IRRIGATION;Mesure directe;2.4848754128488406;48.469643384625535;Contrôlé Niveau 1;Correcte;False;EARL BRIERRE;{'type': 'Point', 'crs': {'type': 'name', 'properties': {'name': 'urn:ogc:def:crs:OGC:1.3:CRS84'}}, 'coordinates': [2.4848754128488406, 48.469643384625535]};https://id.eaufrance.fr/OuvragePrel/OPR0000037693
2022;Méréville;91390;Essonne;91;36540.0;IRRIGATION;Mesure directe;2.0409699663363954;48.30103006972305;Contrôlé Niveau 1;Correcte;False;EARL BORDERIEUX;{'type': 'Point', 'crs': {'type': 'name', 'properties': {'name': 'urn:ogc:def:crs:OGC:1.3:CRS84'}}, 'coordinates': [2.0409699663363954, 48.30103006972305]};https://id.eaufrance.fr/OuvragePrel/OPR0000037696
2022;Brouy;91112;Essonne;91;68547.0;IRRIGATION;Mesure directe;2.2804356336115594;48.31901394964409;Contrôlé Niveau 1;Correcte;False;ASSOCIATION SYNDICAL LIBRE;{'type': 'Point', 'crs': {'type': 'name', 'properties': {'name': 'urn:ogc:def:crs:OGC:1.3:CRS84'}}, 'coordinates': [2.2804356336115594, 48.31901394964409]};https://id.eaufrance.fr/OuvragePrel/OPR0000037697
2022;Guigneville-sur-Essonne;91293;Essonne;91;30413.0;IRRIGATION;Mesure directe;2.354917182257877;48.47081676196035;Contrôlé Niveau 1;Correcte;False;EARL WILLAERT;{'type': 'Point', 'crs': {'type': 'name', 'properties': {'name': 'urn:ogc:def:crs:OGC:1.3:CRS84'}}, 'coordinates': [2.354917182257877, 48.47081676196035]};https://id.eaufrance.fr/OuvragePrel/OPR0000037698
2022;Buno-Bonnevaux;91121;Essonne;91;135510.0;IRRIGATION;Mesure directe;2.40980962791162;48.36566953646708;Contrôlé Niveau 1;Correcte;False;EARL DE HAZAY-EARL CROIX BOIS  SEC;{'type': 'Point', 'crs': {'type': 'name', 'properties': {'name': 'urn:ogc:def:crs:OGC:1.3:CRS84'}}, 'coordinates': [2.4098096279116197, 48.36566953646708]};https://id.eaufrance.fr/OuvragePrel/OPR0000037699
2022;Étréchy;91226;Essonne;91;194610.0;IRRIGATION;Mesure directe;2.188294063523836;48.47584035709008;Contrôlé Niveau 1;Correcte;False;SCEA LENORMAND;{'type': 'Point', 'crs': {'type': 'name', 'properties': {'name': 'urn:ogc:def:crs:OGC:1.3:CRS84'}}, 'coordinates': [2.188294063523836, 48.47584035709008]};https://id.eaufrance.fr/OuvragePrel/OPR0000037700
2022;Morigny-Champigny;91433;Essonne;91;26714.0;IRRIGATION;Mesure directe;2.217135139649056;48.40367289324724;Contrôlé Niveau 1;Correcte;False;EARL FERME DE LA MONTAGNE;{'type': 'Point', 'crs': {'type': 'name', 'properties': {'name': 'urn:ogc:def:crs:OGC:1.3:CRS84'}}, 'coordinates': [2.217135139649056, 48.40367289324724]};https://id.eaufrance.fr/OuvragePrel/OPR0000037701
2022;Pussay;91511;Essonne;91;93935.0;IRRIGATION;Mesure directe;1.9944498523333771;48.343050864234;Contrôlé Niveau 1;Correcte;False;Le Rougemenont;{'type': 'Point', 'crs': {'type': 'name', 'properties': {'name': 'urn:ogc:def:crs:OGC:1.3:CRS84'}}, 'coordinates': [1.9944498523333773, 48.343050864234]};https://id.eaufrance.fr/OuvragePrel/OPR0000037702
2022;Courdimanche-sur-Essonne;91184;Essonne;91;93097.0;IRRIGATION;Mesure directe;2.340311690854728;48.41326600585578;Contrôlé Niveau 1;Correcte;False;GAEC FERME DE COIGNAMPUITS;{'type': 'Point', 'crs': {'type': 'name', 'properties': {'name': 'urn:ogc:def:crs:OGC:1.3:CRS84'}}, 'coordinates': [2.340311690854728, 48.41326600585578]};https://id.eaufrance.fr/OuvragePrel/OPR0000037703
2022;Bouville;91100;Essonne;91;9816.0;IRRIGATION;Mesure directe;2.2841022764633148;48.42440204560333;Contrôlé Niveau 1;Correcte;False;M. MOULE SYLVAIN;{'type': 'Point', 'crs': {'type': 'name', 'properties': {'name': 'urn:ogc:def:crs:OGC:1.3:CRS84'}}, 'coordinates': [2.2841022764633148, 48.42440204560333]};https://id.eaufrance.fr/OuvragePrel/OPR0000037704
2022;Puiselet-le-Marais;91508;Essonne;91;76681.0;IRRIGATION;Mesure directe;2.265488559836134;48.40605155132686;Contrôlé Niveau 1;Correcte;False;GAEC DES GAUDRONS;{'type': 'Point', 'crs': {'type': 'name', 'properties': {'name': 'urn:ogc:def:crs:OGC:1.3:CRS84'}}, 'coordinates': [2.265488559836134, 48.40605155132686]};https://id.eaufrance.fr/OuvragePrel/OPR0000037706
2022;Ballancourt-sur-Essonne;91045;Essonne;91;80777.0;IRRIGATION;Mesure directe;2.396503990362909;48.52511151439572;Contrôlé Niveau 1;Correcte;False;EARL FERLE SOLAIRE - EARL LES  S;{'type': 'Point', 'crs': {'type': 'name', 'properties': {'name': 'urn:ogc:def:crs:OGC:1.3:CRS84'}}, 'coordinates': [2.3965039903629095, 48.52511151439572]};https://id.eaufrance.fr/OuvragePrel/OPR0000037707
2022;Lardy;91330;Essonne;91;445672.0;IRRIGATION;Mesure directe;2.2748833022021318;48.53021633489461;Contrôlé Niveau 1;Correcte;False;ASSOCIATION D IRRI HUREPOIX;{'type': 'Point', 'crs': {'type': 'name', 'properties': {'name': 'urn:ogc:def:crs:OGC:1.3:CRS84'}}, 'coordinates': [2.2748833022021313, 48.53021633489461]};https://id.eaufrance.fr/OuvragePrel/OPR0000037708
2022;Boigneville;91069;Essonne;91;30905.0;IRRIGATION;Mesure directe;2.3649767684488547;48.3147019604441;Contrôlé Niveau 1;Correcte;False;M VALLEE SEBASTIEN;{'type': 'Point', 'crs': {'type': 'name', 'properties': {'name': 'urn:ogc:def:crs:OGC:1.3:CRS84'}}, 'coordinates': [2.3649767684488547, 48.314701960444104]};https://id.eaufrance.fr/OuvragePrel/OPR0000037709
2022;Méréville;91390;Essonne;91;32499.0;IRRIGATION;Mesure directe;2.088382714921444;48.340239041118544;Contrôlé Niveau 1;Correcte;False;S.C.E.A BOUDET;{'type': 'Point', 'crs': {'type': 'name', 'properties': {'name': 'urn:ogc:def:crs:OGC:1.3:CRS84'}}, 'coordinates': [2.088382714921444, 48.340239041118544]};https://id.eaufrance.fr/OuvragePrel/OPR0000037710
2022;Bouville;91100;Essonne;91;24140.0;IRRIGATION;Mesure directe;2.2855499234852203;48.42728974936004;Contrôlé Niveau 1;Correcte;False;Bouville;{'type': 'Point', 'crs': {'type': 'name', 'properties': {'name': 'urn:ogc:def:crs:OGC:1.3:CRS84'}}, 'coordinates': [2.2855499234852203, 48.42728974936004]};https://id.eaufrance.fr/OuvragePrel/OPR0000037711
2022;Angerville;91016;Essonne;91;82085.0;IRRIGATION;Mesure directe;1.9806656389982185;48.288882514313215;Contrôlé Niveau 1;Correcte;False;EARL PAVARD;{'type': 'Point', 'crs': {'type': 'name', 'properties': {'name': 'urn:ogc:def:crs:OGC:1.3:CRS84'}}, 'coordinates': [1.9806656389982185, 48.288882514313215]};https://id.eaufrance.fr/OuvragePrel/OPR0000037712
2022;Angerville;91016;Essonne;91;102403.0;IRRIGATION;Mesure directe;2.005427095583158;48.29353829036212;Contrôlé Niveau 1;Correcte;False;EARL LES 14 MUIDS-SCEA DE PUIS ELET;{'type': 'Point', 'crs': {'type': 'name', 'properties': {'name': 'urn:ogc:def:crs:OGC:1.3:CRS84'}}, 'coordinates': [2.005427095583158, 48.29353829036212]};https://id.eaufrance.fr/OuvragePrel/OPR0000037713
2022;Nainville-les-Roches;91441;Essonne;91;69840.0;IRRIGATION;Mesure directe;2.4925658241848563;48.508207137882685;Contrôlé Niveau 1;Correcte;False;EARL MOURET;{'type': 'Point', 'crs': {'type': 'name', 'properties': {'name': 'urn:ogc:def:crs:OGC:1.3:CRS84'}}, 'coordinates': [2.4925658241848563, 48.508207137882685]};https://id.eaufrance.fr/OuvragePrel/OPR0000037715
2022;Méréville;91390;Essonne;91;155087.0;IRRIGATION;Mesure directe;2.122553842502537;48.30546915583837;Contrôlé Niveau 1;Correcte;False;Mereville;{'type': 'Point', 'crs': {'type': 'name', 'properties': {'name': 'urn:ogc:def:crs:OGC:1.3:CRS84'}}, 'coordinates': [2.1225538425025374, 48.305469155838374]};https://id.eaufrance.fr/OuvragePrel/OPR0000037716
2022;Méréville;91390;Essonne;91;93891.0;IRRIGATION;Mesure directe;2.052664337592936;48.306172083252015;Contrôlé Niveau 1;Correcte;False;GAEC FOUCAULT;{'type': 'Point', 'crs': {'type': 'name', 'properties': {'name': 'urn:ogc:def:crs:OGC:1.3:CRS84'}}, 'coordinates': [2.052664337592936, 48.306172083252015]};https://id.eaufrance.fr/OuvragePrel/OPR0000037717
2022;Angerville;91016;Essonne;91;42425.0;IRRIGATION;Mesure directe;1.9916292078214215;48.32119822077284;Contrôlé Niveau 1;Correcte;False;M POISSON JEAN LUC;{'type': 'Point', 'crs': {'type': 'name', 'properties': {'name': 'urn:ogc:def:crs:OGC:1.3:CRS84'}}, 'coordinates': [1.9916292078214217, 48.32119822077284]};https://id.eaufrance.fr/OuvragePrel/OPR0000037718
2022;Milly-la-Forêt;91405;Essonne;91;4741.0;IRRIGATION;Mesure directe;2.5060019277393613;48.40117949427208;Contrôlé Niveau 1;Correcte;False;EARL LE VERT POTAGER;{'type': 'Point', 'crs': {'type': 'name', 'properties': {'name': 'urn:ogc:def:crs:OGC:1.3:CRS84'}}, 'coordinates': [2.5060019277393613, 48.40117949427208]};https://id.eaufrance.fr/OuvragePrel/OPR0000037719
2022;Forêt-le-Roi;91247;Essonne;91;52969.0;IRRIGATION;Mesure directe;2.0525243417122603;48.4744118732648;Contrôlé Niveau 1;Correcte;False;M. AUBERGE THIBAUT;{'type': 'Point', 'crs': {'type': 'name', 'properties': {'name': 'urn:ogc:def:crs:OGC:1.3:CRS84'}}, 'coordinates': [2.0525243417122603, 48.4744118732648]};https://id.eaufrance.fr/OuvragePrel/OPR0000037720
2022;Vayres-sur-Essonne;91639;Essonne;91;22178.0;IRRIGATION;Mesure directe;2.35706393996546;48.43250308598065;Contrôlé Niveau 1;Correcte;False;EARL BROUILLARD;{'type': 'Point', 'crs': {'type': 'name', 'properties': {'name': 'urn:ogc:def:crs:OGC:1.3:CRS84'}}, 'coordinates': [2.3570639399654594, 48.43250308598065]};https://id.eaufrance.fr/OuvragePrel/OPR0000037721
2022;Buno-Bonnevaux;91121;Essonne;91;94582.0;IRRIGATION;Mesure directe;2.4350172421228127;48.35693025871001;Contrôlé Niveau 1;Correcte;False;EARL DE LA FERME DE MEZIERES;{'type': 'Point', 'crs': {'type': 'name', 'properties': {'name': 'urn:ogc:def:crs:OGC:1.3:CRS84'}}, 'coordinates': [2.4350172421228127, 48.35693025871001]};https://id.eaufrance.fr/OuvragePrel/OPR0000037722
2022;Pussay;91511;Essonne;91;78948.0;IRRIGATION;Mesure directe;1.992101603325652;48.351497739145096;Contrôlé Niveau 1;Correcte;False;SCEA SEVESTRE DOMINIQUE ET MAU RICE;{'type': 'Point', 'crs': {'type': 'name', 'properties': {'name': 'urn:ogc:def:crs:OGC:1.3:CRS84'}}, 'coordinates': [1.9921016033256522, 48.351497739145096]};https://id.eaufrance.fr/OuvragePrel/OPR0000037723
2022;Maisse;91359;Essonne;91;1174.0;IRRIGATION;Mesure directe;2.331462534380106;48.39923528903965;Contrôlé Niveau 1;Correcte;False;NAUDIN Christophe / Thomas UITS;{'type': 'Point', 'crs': {'type': 'name', 'properties': {'name': 'urn:ogc:def:crs:OGC:1.3:CRS84'}}, 'coordinates': [2.331462534380106, 48.39923528903965]};https://id.eaufrance.fr/OuvragePrel/OPR0000037724
2022;Congerville-Thionville;91613;Essonne;91;116640.0;IRRIGATION;Mesure directe;1.9883343067878283;48.387365874595375;Contrôlé Niveau 1;Correcte;False;EARL PELE PAILLET;{'type': 'Point', 'crs': {'type': 'name', 'properties': {'name': 'urn:ogc:def:crs:OGC:1.3:CRS84'}}, 'coordinates': [1.9883343067878283, 48.387365874595375]};https://id.eaufrance.fr/OuvragePrel/OPR0000037726
2022;Chalo-Saint-Mars;91130;Essonne;91;85305.0;IRRIGATION;Mesure directe;2.0411791699842863;48.42438782281784;Contrôlé Niveau 1;Correcte;False;EARL VINCHON;{'type': 'Point', 'crs': {'type': 'name', 'properties': {'name': 'urn:ogc:def:crs:OGC:1.3:CRS84'}}, 'coordinates': [2.0411791699842863, 48.424387822817835]};https://id.eaufrance.fr/OuvragePrel/OPR0000037727
2022;Chatignonville;91145;Essonne;91;70107.0;IRRIGATION;Mesure directe;1.9327477636411965;48.4672148765387;Contrôlé Niveau 1;Correcte;False;M. BELLIER PATRICK;{'type': 'Point', 'crs': {'type': 'name', 'properties': {'name': 'urn:ogc:def:crs:OGC:1.3:CRS84'}}, 'coordinates': [1.9327477636411965, 48.4672148765387]};https://id.eaufrance.fr/OuvragePrel/OPR0000037728
2022;Morigny-Champigny;91433;Essonne;91;58640.0;IRRIGATION;Mesure directe;2.211934282703061;48.43513668429885;Contrôlé Niveau 1;Correcte;False;EARL SAINTE ANNE;{'type': 'Point', 'crs': {'type': 'name', 'properties': {'name': 'urn:ogc:def:crs:OGC:1.3:CRS84'}}, 'coordinates': [2.2119342827030612, 48.43513668429885]};https://id.eaufrance.fr/OuvragePrel/OPR0000037729
2022;Saint-Escobille;91547;Essonne;91;65730.0;IRRIGATION;Mesure directe;1.95382747914412;48.41620891123912;Contrôlé Niveau 1;Correcte;False;EARL MINIER;{'type': 'Point', 'crs': {'type': 'name', 'properties': {'name': 'urn:ogc:def:crs:OGC:1.3:CRS84'}}, 'coordinates': [1.9538274791441201, 48.41620891123912]};https://id.eaufrance.fr/OuvragePrel/OPR0000037730
2022;Ormoy-la-Rivière;91469;Essonne;91;4248.0;IRRIGATION;Mesure directe;2.164260617486447;48.39696907538239;Contrôlé Niveau 1;Correcte;False;MM DEBU YVES ET PATRICK;{'type': 'Point', 'crs': {'type': 'name', 'properties': {'name': 'urn:ogc:def:crs:OGC:1.3:CRS84'}}, 'coordinates': [2.164260617486447, 48.39696907538239]};https://id.eaufrance.fr/OuvragePrel/OPR0000037731
2022;Ormoy-la-Rivière;91469;Essonne;91;2923.0;IRRIGATION;Mesure directe;2.164260617486447;48.39696907538239;Contrôlé Niveau 1;Correcte;False;MM DEBU YVES ET PATRICK;{'type': 'Point', 'crs': {'type': 'name', 'properties': {'name': 'urn:ogc:def:crs:OGC:1.3:CRS84'}}, 'coordinates': [2.164260617486447, 48.39696907538239]};https://id.eaufrance.fr/OuvragePrel/OPR0000037732
2022;Gironville-sur-Essonne;91273;Essonne;91;65743.0;IRRIGATION;Mesure directe;2.360548889075224;48.373871232529446;Contrôlé Niveau 1;Correcte;False;SCEA DE LA FERME DE DANJOUAN;{'type': 'Point', 'crs': {'type': 'name', 'properties': {'name': 'urn:ogc:def:crs:OGC:1.3:CRS84'}}, 'coordinates': [2.3605488890752238, 48.373871232529446]};https://id.eaufrance.fr/OuvragePrel/OPR0000037734
2022;Méréville;91390;Essonne;91;35655.0;IRRIGATION;Mesure directe;2.0581769418526688;48.30788968274391;Contrôlé Niveau 1;Correcte;False;MR DAUBIGNARD GILLES;{'type': 'Point', 'crs': {'type': 'name', 'properties': {'name': 'urn:ogc:def:crs:OGC:1.3:CRS84'}}, 'coordinates': [2.0581769418526688, 48.30788968274391]};https://id.eaufrance.fr/OuvragePrel/OPR0000037736
2022;Roinvilliers;91526;Essonne;91;49132.0;IRRIGATION;Mesure directe;2.241508187126078;48.33548832788966;Contrôlé Niveau 1;Correcte;False;EARL LENOIR;{'type': 'Point', 'crs': {'type': 'name', 'properties': {'name': 'urn:ogc:def:crs:OGC:1.3:CRS84'}}, 'coordinates': [2.241508187126078, 48.33548832788966]};https://id.eaufrance.fr/OuvragePrel/OPR0000037737
2022;Boigneville;91069;Essonne;91;13514.0;IRRIGATION;Mesure directe;2.361250506202805;48.33054437031038;Contrôlé Niveau 1;Correcte;False;M. VALLEE FRANCOIS;{'type': 'Point', 'crs': {'type': 'name', 'properties': {'name': 'urn:ogc:def:crs:OGC:1.3:CRS84'}}, 'coordinates': [2.361250506202805, 48.33054437031038]};https://id.eaufrance.fr/OuvragePrel/OPR0000037738
2022;Authon-la-Plaine;91035;Essonne;91;98409.0;IRRIGATION;Mesure directe;1.953687247410364;48.45244825681697;Contrôlé Niveau 1;Correcte;False;THIRUOIN OLIVIER;{'type': 'Point', 'crs': {'type': 'name', 'properties': {'name': 'urn:ogc:def:crs:OGC:1.3:CRS84'}}, 'coordinates': [1.953687247410364, 48.45244825681697]};https://id.eaufrance.fr/OuvragePrel/OPR0000037739
2022;Puiselet-le-Marais;91508;Essonne;91;24202.0;IRRIGATION;Mesure directe;2.2522131840738777;48.3922211377355;Contrôlé Niveau 1;Correcte;False;Babault O;{'type': 'Point', 'crs': {'type': 'name', 'properties': {'name': 'urn:ogc:def:crs:OGC:1.3:CRS84'}}, 'coordinates': [2.2522131840738777, 48.3922211377355]};https://id.eaufrance.fr/OuvragePrel/OPR0000037740
2022;Méréville;91390;Essonne;91;231845.0;IRRIGATION;Mesure directe;2.0529402243378896;48.32233439597143;Contrôlé Niveau 1;Correcte;False;SCEA DE MENNESSARD;{'type': 'Point', 'crs': {'type': 'name', 'properties': {'name': 'urn:ogc:def:crs:OGC:1.3:CRS84'}}, 'coordinates': [2.0529402243378896, 48.32233439597143]};https://id.eaufrance.fr/OuvragePrel/OPR0000037741
2022;Milly-la-Forêt;91405;Essonne;91;87484.0;IRRIGATION;Mesure directe;2.48539696952467;48.39985930446831;Contrôlé Niveau 1;Correcte;False;Milly-la-forêt;{'type': 'Point', 'crs': {'type': 'name', 'properties': {'name': 'urn:ogc:def:crs:OGC:1.3:CRS84'}}, 'coordinates': [2.48539696952467, 48.39985930446831]};https://id.eaufrance.fr/OuvragePrel/OPR0000037743
2022;Authon-la-Plaine;91035;Essonne;91;52329.0;IRRIGATION;Mesure directe;1.9610646481146172;48.45076763472744;Contrôlé Niveau 1;Correcte;False;GAEC FAUQUET;{'type': 'Point', 'crs': {'type': 'name', 'properties': {'name': 'urn:ogc:def:crs:OGC:1.3:CRS84'}}, 'coordinates': [1.9610646481146174, 48.450767634727434]};https://id.eaufrance.fr/OuvragePrel/OPR0000037744
2022;Maisse;91359;Essonne;91;14405.0;IRRIGATION;Mesure directe;2.390548923190533;48.40821766785072;Contrôlé Niveau 1;Correcte;False;EARL HARDY;{'type': 'Point', 'crs': {'type': 'name', 'properties': {'name': 'urn:ogc:def:crs:OGC:1.3:CRS84'}}, 'coordinates': [2.390548923190533, 48.408217667850714]};https://id.eaufrance.fr/OuvragePrel/OPR0000037745
2022;Maisse;91359;Essonne;91;72288.0;IRRIGATION;Mesure directe;2.3778456527156253;48.39688762237246;Contrôlé Niveau 1;Correcte;False;SCEA FERME DU CHATEAU;{'type': 'Point', 'crs': {'type': 'name', 'properties': {'name': 'urn:ogc:def:crs:OGC:1.3:CRS84'}}, 'coordinates': [2.3778456527156253, 48.39688762237246]};https://id.eaufrance.fr/OuvragePrel/OPR0000037746
2022;Chevannes;91159;Essonne;91;40670.0;IRRIGATION;Mesure directe;2.452143921333501;48.527225135522535;Contrôlé Niveau 1;Correcte;False;SYNDICAT  INTERCOMMUNAL IRRIGA TION;{'type': 'Point', 'crs': {'type': 'name', 'properties': {'name': 'urn:ogc:def:crs:OGC:1.3:CRS84'}}, 'coordinates': [2.4521439213335015, 48.527225135522535]};https://id.eaufrance.fr/OuvragePrel/OPR0000037747
2022;Chatignonville;91145;Essonne;91;93105.0;IRRIGATION;Mesure directe;1.935948082445742;48.46417563214344;Contrôlé Niveau 1;Correcte;False;EARL THIERRY;{'type': 'Point', 'crs': {'type': 'name', 'properties': {'name': 'urn:ogc:def:crs:OGC:1.3:CRS84'}}, 'coordinates': [1.935948082445742, 48.464175632143444]};https://id.eaufrance.fr/OuvragePrel/OPR0000037748
2022;Sermaise;91593;Essonne;91;458.0;IRRIGATION;Mesure directe;2.074676883600062;48.51646556982243;Contrôlé Niveau 1;Correcte;False;M CHEVALLIER PHILIPPE;{'type': 'Point', 'crs': {'type': 'name', 'properties': {'name': 'urn:ogc:def:crs:OGC:1.3:CRS84'}}, 'coordinates': [2.0746768836000626, 48.51646556982243]};https://id.eaufrance.fr/OuvragePrel/OPR0000037749
2022;Arrancourt;91022;Essonne;91;114270.0;IRRIGATION;Mesure directe;2.14251834950633;48.31850023078632;Contrôlé Niveau 1;Correcte;False;EARL DU GRAND VILLIERS;{'type': 'Point', 'crs': {'type': 'name', 'properties': {'name': 'urn:ogc:def:crs:OGC:1.3:CRS84'}}, 'coordinates': [2.14251834950633, 48.31850023078632]};https://id.eaufrance.fr/OuvragePrel/OPR0000037750
2022;Guigneville-sur-Essonne;91293;Essonne;91;6220.0;IRRIGATION;Mesure directe;2.374423556213942;48.46536133942466;Contrôlé Niveau 1;Correcte;False;M FAUQUEMBERGUE JEAN MICHEL;{'type': 'Point', 'crs': {'type': 'name', 'properties': {'name': 'urn:ogc:def:crs:OGC:1.3:CRS84'}}, 'coordinates': [2.374423556213942, 48.46536133942466]};https://id.eaufrance.fr/OuvragePrel/OPR0000037751
2022;Ormoy-la-Rivière;91469;Essonne;91;134349.0;IRRIGATION;Mesure directe;2.1758323898537717;48.39911941119071;Contrôlé Niveau 1;Correcte;False;M. IMBAULT FRANCOIS;{'type': 'Point', 'crs': {'type': 'name', 'properties': {'name': 'urn:ogc:def:crs:OGC:1.3:CRS84'}}, 'coordinates': [2.1758323898537713, 48.39911941119071]};https://id.eaufrance.fr/OuvragePrel/OPR0000037753
2022;Valpuiseaux;91629;Essonne;91;38230.0;IRRIGATION;Mesure directe;2.3222127886648405;48.41875099432004;Contrôlé Niveau 1;Correcte;False;GAEC DE COURTY;{'type': 'Point', 'crs': {'type': 'name', 'properties': {'name': 'urn:ogc:def:crs:OGC:1.3:CRS84'}}, 'coordinates': [2.3222127886648405, 48.41875099432004]};https://id.eaufrance.fr/OuvragePrel/OPR0000037754
2022;Gironville-sur-Essonne;91273;Essonne;91;174740.0;IRRIGATION;Mesure directe;2.338420838372383;48.35840962465678;Contrôlé Niveau 1;Correcte;False;SCEA FERME DE VIGNAY;{'type': 'Point', 'crs': {'type': 'name', 'properties': {'name': 'urn:ogc:def:crs:OGC:1.3:CRS84'}}, 'coordinates': [2.338420838372383, 48.35840962465678]};https://id.eaufrance.fr/OuvragePrel/OPR0000037756
2022;Champmotteux;91137;Essonne;91;56.0;IRRIGATION;Mesure directe;2.305635384281223;48.342548733508416;Contrôlé Niveau 1;Correcte;False;SCEA CHATEAU GAILLARD;{'type': 'Point', 'crs': {'type': 'name', 'properties': {'name': 'urn:ogc:def:crs:OGC:1.3:CRS84'}}, 'coordinates': [2.305635384281223, 48.342548733508416]};https://id.eaufrance.fr/OuvragePrel/OPR0000037757
2022;Prunay-sur-Essonne;91507;Essonne;91;246030.0;IRRIGATION;Mesure directe;2.366748181249033;48.35697191266747;Contrôlé Niveau 1;Correcte;False;GI GAEC LA VALLEE- EARL M.HALL OT;{'type': 'Point', 'crs': {'type': 'name', 'properties': {'name': 'urn:ogc:def:crs:OGC:1.3:CRS84'}}, 'coordinates': [2.366748181249033, 48.35697191266747]};https://id.eaufrance.fr/OuvragePrel/OPR0000037758
2022;Cerny;91129;Essonne;91;5380.0;IRRIGATION;Mesure directe;2.306684972450228;48.4862346903116;Contrôlé Niveau 1;Correcte;False;EARL GUYON;{'type': 'Point', 'crs': {'type': 'name', 'properties': {'name': 'urn:ogc:def:crs:OGC:1.3:CRS84'}}, 'coordinates': [2.3066849724502276, 48.4862346903116]};https://id.eaufrance.fr/OuvragePrel/OPR0000037759
2022;Ferté-Alais;91232;Essonne;91;38020.0;IRRIGATION;Mesure directe;2.3723442056116046;48.47521942721991;Contrôlé Niveau 1;Correcte;False;EARL GUYON;{'type': 'Point', 'crs': {'type': 'name', 'properties': {'name': 'urn:ogc:def:crs:OGC:1.3:CRS84'}}, 'coordinates': [2.3723442056116046, 48.47521942721991]};https://id.eaufrance.fr/OuvragePrel/OPR0000037760
2022;Roinvilliers;91526;Essonne;91;37011.0;IRRIGATION;Mesure directe;2.2308862961461364;48.33929772506247;Contrôlé Niveau 1;Correcte;False;EARL PITHOIS FRERES;{'type': 'Point', 'crs': {'type': 'name', 'properties': {'name': 'urn:ogc:def:crs:OGC:1.3:CRS84'}}, 'coordinates': [2.2308862961461364, 48.339297725062465]};https://id.eaufrance.fr/OuvragePrel/OPR0000037766
2022;Auvernaux;91037;Essonne;91;49916.0;IRRIGATION;Mesure directe;2.5008526334839183;48.54223780241608;Contrôlé Niveau 1;Correcte;False;GI HILGENSA WILFRID ET BERNHAD ETTE;{'type': 'Point', 'crs': {'type': 'name', 'properties': {'name': 'urn:ogc:def:crs:OGC:1.3:CRS84'}}, 'coordinates': [2.5008526334839183, 48.542237802416075]};https://id.eaufrance.fr/OuvragePrel/OPR0000037815
2022;Morigny-Champigny;91433;Essonne;91;38834.0;IRRIGATION;Mesure directe;2.1700569615727536;48.47141392815141;Contrôlé Niveau 1;Correcte;False;EARL DE BEAUREGARD;{'type': 'Point', 'crs': {'type': 'name', 'properties': {'name': 'urn:ogc:def:crs:OGC:1.3:CRS84'}}, 'coordinates': [2.1700569615727536, 48.47141392815141]};https://id.eaufrance.fr/OuvragePrel/OPR0000037967
2022;Richarville;91519;Essonne;91;89412.0;IRRIGATION;Mesure directe;2.005868968383303;48.472357044593046;Contrôlé Niveau 1;Correcte;False;CUMA DE LA HAIE DU MOULIN;{'type': 'Point', 'crs': {'type': 'name', 'properties': {'name': 'urn:ogc:def:crs:OGC:1.3:CRS84'}}, 'coordinates': [2.005868968383303, 48.472357044593046]};https://id.eaufrance.fr/OuvragePrel/OPR0000037968
2022;Richarville;91519;Essonne;91;92807.0;IRRIGATION;Mesure directe;1.9973037992591105;48.47876273396866;Contrôlé Niveau 1;Correcte;False;CUMA DE LA HAIE DU MOULIN;{'type': 'Point', 'crs': {'type': 'name', 'properties': {'name': 'urn:ogc:def:crs:OGC:1.3:CRS84'}}, 'coordinates': [1.9973037992591105, 48.47876273396866]};https://id.eaufrance.fr/OuvragePrel/OPR0000037969
2022;Arrancourt;91022;Essonne;91;73086.0;IRRIGATION;Mesure directe;2.152960278867724;48.33021834247159;Contrôlé Niveau 1;Correcte;False;BEAULIEU EARL DETTE;{'type': 'Point', 'crs': {'type': 'name', 'properties': {'name': 'urn:ogc:def:crs:OGC:1.3:CRS84'}}, 'coordinates': [2.152960278867724, 48.33021834247159]};https://id.eaufrance.fr/OuvragePrel/OPR0000038810
2022;Saint-Escobille;91547;Essonne;91;47627.0;IRRIGATION;Mesure directe;1.9218953609706864;48.488403523571606;Contrôlé Niveau 1;Correcte;False;EARL LES GRANDES VIGNES;{'type': 'Point', 'crs': {'type': 'name', 'properties': {'name': 'urn:ogc:def:crs:OGC:1.3:CRS84'}}, 'coordinates': [1.9218953609706866, 48.488403523571606]};https://id.eaufrance.fr/OuvragePrel/OPR0000039341
2022;Bièvres;91064;Essonne;91;30540.0;IRRIGATION;Mesure directe;2.208146359376986;48.75820852118351;Contrôlé Niveau 1;Correcte;False;Bièvres;{'type': 'Point', 'crs': {'type': 'name', 'properties': {'name': 'urn:ogc:def:crs:OGC:1.3:CRS84'}}, 'coordinates': [2.208146359376986, 48.75820852118351]};https://id.eaufrance.fr/OuvragePrel/OPR0000039343
2022;Mérobert;91393;Essonne;91;50328.0;IRRIGATION;Mesure directe;1.98224352975568;48.4675594966535;Contrôlé Niveau 1;Correcte;False;Forage d'AUBRAY la Fosse du n UBRAY;{'type': 'Point', 'crs': {'type': 'name', 'properties': {'name': 'urn:ogc:def:crs:OGC:1.3:CRS84'}}, 'coordinates': [1.9822435297556797, 48.4675594966535]};https://id.eaufrance.fr/OuvragePrel/OPR0000039344
2022;Richarville;91519;Essonne;91;19174.0;IRRIGATION;Mesure directe;1.9780579337972315;48.4087364762395;Contrôlé Niveau 1;Correcte;False;Bréau st Lubin - Ferme de main er;{'type': 'Point', 'crs': {'type': 'name', 'properties': {'name': 'urn:ogc:def:crs:OGC:1.3:CRS84'}}, 'coordinates': [1.9780579337972315, 48.4087364762395]};https://id.eaufrance.fr/OuvragePrel/OPR0000039345
2022;Gometz-la-Ville;91274;Essonne;91;12648.0;IRRIGATION;Mesure directe;2.1184529054819325;48.666524643974775;Contrôlé Niveau 1;Correcte;False;M. PESCHEUX RAYMOND;{'type': 'Point', 'crs': {'type': 'name', 'properties': {'name': 'urn:ogc:def:crs:OGC:1.3:CRS84'}}, 'coordinates': [2.1184529054819325, 48.666524643974775]};https://id.eaufrance.fr/OuvragePrel/OPR0000039346
2022;Corbeil-Essonnes;91174;Essonne;91;122763.0;INDUSTRIE et ACTIVITES ECONOMIQUES (hors irrigation, hors énergie);Mesure directe;2.484014584803377;48.57100615485768;Contrôlé Niveau 1;Correcte;False;ALTIS - prélèvement en Seine;{'type': 'Point', 'crs': {'type': 'name', 'properties': {'name': 'urn:ogc:def:crs:OGC:1.3:CRS84'}}, 'coordinates': [2.4840145848033766, 48.57100615485768]};https://id.eaufrance.fr/OuvragePrel/OPR0000039791
2022;Coudray-Montceaux;91179;Essonne;91;513290.0;INDUSTRIE et ACTIVITES ECONOMIQUES (hors irrigation, hors énergie);Mesure directe;2.4796127745907333;48.56928681428254;Contrôlé Niveau 1;Correcte;False;Altis - Forage Néocomien éocomien;{'type': 'Point', 'crs': {'type': 'name', 'properties': {'name': 'urn:ogc:def:crs:OGC:1.3:CRS84'}}, 'coordinates': [2.4796127745907333, 48.56928681428254]};https://id.eaufrance.fr/OuvragePrel/OPR0000039792
2022;Coudray-Montceaux;91179;Essonne;91;598648.0;INDUSTRIE et ACTIVITES ECONOMIQUES (hors irrigation, hors énergie);Mesure directe;2.4783830811085434;48.57027094670362;Contrôlé Niveau 1;Correcte;False;ALTIS - Forage Champigny  LLE C380, SITE DE L'USINE ALTI;{'type': 'Point', 'crs': {'type': 'name', 'properties': {'name': 'urn:ogc:def:crs:OGC:1.3:CRS84'}}, 'coordinates': [2.4783830811085434, 48.57027094670362]};https://id.eaufrance.fr/OuvragePrel/OPR0000039793
2022;Wissous;91689;Essonne;91;6346.0;INDUSTRIE et ACTIVITES ECONOMIQUES (hors irrigation, hors énergie);Mesure directe;2.3415965158473284;48.72065748048937;Contrôlé Niveau 1;Correcte;False;HOLCIM BETON FRANCE;{'type': 'Point', 'crs': {'type': 'name', 'properties': {'name': 'urn:ogc:def:crs:OGC:1.3:CRS84'}}, 'coordinates': [2.3415965158473284, 48.72065748048937]};https://id.eaufrance.fr/OuvragePrel/OPR0000040902
2022;Arpajon;91021;Essonne;91;32982.0;INDUSTRIE et ACTIVITES ECONOMIQUES (hors irrigation, hors énergie);Mesure directe;2.257713635547437;48.59302749755697;Non qualifié;Non qualifié;False;UNIBETON ARPAJON;{'type': 'Point', 'crs': {'type': 'name', 'properties': {'name': 'urn:ogc:def:crs:OGC:1.3:CRS84'}}, 'coordinates': [2.257713635547437, 48.59302749755697]};https://id.eaufrance.fr/OuvragePrel/OPR0000040903
2022;Athis-Mons;91027;Essonne;91;4498.0;INDUSTRIE et ACTIVITES ECONOMIQUES (hors irrigation, hors énergie);Mesure directe;2.4023818869707987;48.70574951058802;Contrôlé Niveau 1;Correcte;False;CEMEX ATHIS MONS SURFACE;{'type': 'Point', 'crs': {'type': 'name', 'properties': {'name': 'urn:ogc:def:crs:OGC:1.3:CRS84'}}, 'coordinates': [2.4023818869707987, 48.70574951058802]};https://id.eaufrance.fr/OuvragePrel/OPR0000040904
2022;Janvry;91319;Essonne;91;31624.0;INDUSTRIE et ACTIVITES ECONOMIQUES (hors irrigation, hors énergie);Mesure directe;2.1646406406195644;48.629004870652544;Contrôlé Niveau 1;Correcte;False;Forage Golf;{'type': 'Point', 'crs': {'type': 'name', 'properties': {'name': 'urn:ogc:def:crs:OGC:1.3:CRS84'}}, 'coordinates': [2.1646406406195644, 48.629004870652544]};https://id.eaufrance.fr/OuvragePrel/OPR0000040905
2022;Wissous;91689;Essonne;91;11586.0;INDUSTRIE et ACTIVITES ECONOMIQUES (hors irrigation, hors énergie);Mesure directe;2.340157521926699;48.72265532616116;Contrôlé Niveau 1;Correcte;False;poin d'eau Lafarge Betons Vall ée de Seine;{'type': 'Point', 'crs': {'type': 'name', 'properties': {'name': 'urn:ogc:def:crs:OGC:1.3:CRS84'}}, 'coordinates': [2.340157521926699, 48.72265532616116]};https://id.eaufrance.fr/OuvragePrel/OPR0000040906
2022;Saint-Germain-lès-Arpajon;91552;Essonne;91;61116.0;INDUSTRIE et ACTIVITES ECONOMIQUES (hors irrigation, hors énergie);Mesure directe;2.2676576176183514;48.60535907272588;Contrôlé Niveau 1;Correcte;False;CHR HANSEN FRANCE;{'type': 'Point', 'crs': {'type': 'name', 'properties': {'name': 'urn:ogc:def:crs:OGC:1.3:CRS84'}}, 'coordinates': [2.2676576176183514, 48.605359072725875]};https://id.eaufrance.fr/OuvragePrel/OPR0000040907
2022;Saint-Aubin;91538;Essonne;91;39613.0;INDUSTRIE et ACTIVITES ECONOMIQUES (hors irrigation, hors énergie);Mesure directe;2.144232454793232;48.7160502753252;Contrôlé Niveau 1;Correcte;False;Forage ST AUBIN BSS 02184X0062 /F;{'type': 'Point', 'crs': {'type': 'name', 'properties': {'name': 'urn:ogc:def:crs:OGC:1.3:CRS84'}}, 'coordinates': [2.1442324547932317, 48.716050275325195]};https://id.eaufrance.fr/OuvragePrel/OPR0000040908
2022;Brétigny-sur-Orge;91103;Essonne;91;131015.0;INDUSTRIE et ACTIVITES ECONOMIQUES (hors irrigation, hors énergie);Mesure directe;2.300460272485008;48.59382612592928;Contrôlé Niveau 1;Correcte;False;GRENELLE SERVICE;{'type': 'Point', 'crs': {'type': 'name', 'properties': {'name': 'urn:ogc:def:crs:OGC:1.3:CRS84'}}, 'coordinates': [2.300460272485008, 48.59382612592928]};https://id.eaufrance.fr/OuvragePrel/OPR0000040910
2022;Palaiseau;91477;Essonne;91;6105.0;INDUSTRIE et ACTIVITES ECONOMIQUES (hors irrigation, hors énergie);Mesure directe;2.2513424276413367;48.72283279375118;Contrôlé Niveau 1;Correcte;False;CEMEX BETON ILE DE FRANCE;{'type': 'Point', 'crs': {'type': 'name', 'properties': {'name': 'urn:ogc:def:crs:OGC:1.3:CRS84'}}, 'coordinates': [2.2513424276413367, 48.72283279375118]};https://id.eaufrance.fr/OuvragePrel/OPR0000040912
2022;Palaiseau;91477;Essonne;91;6105.0;INDUSTRIE et ACTIVITES ECONOMIQUES (hors irrigation, hors énergie);Mesure directe;2.250947575884929;48.72287528943544;Contrôlé Niveau 1;Correcte;False;CEMEX BETONS ILE DE FRANCE;{'type': 'Point', 'crs': {'type': 'name', 'properties': {'name': 'urn:ogc:def:crs:OGC:1.3:CRS84'}}, 'coordinates': [2.250947575884929, 48.72287528943544]};https://id.eaufrance.fr/OuvragePrel/OPR0000040913
2022;Bruyères-le-Châtel;91115;Essonne;91;45127.0;INDUSTRIE et ACTIVITES ECONOMIQUES (hors irrigation, hors énergie);Mesure directe;2.20297597849988;48.59519235901201;Contrôlé Niveau 1;Correcte;False;CENTRE D ETUDES CEA;{'type': 'Point', 'crs': {'type': 'name', 'properties': {'name': 'urn:ogc:def:crs:OGC:1.3:CRS84'}}, 'coordinates': [2.2029759784998797, 48.59519235901201]};https://id.eaufrance.fr/OuvragePrel/OPR0000040914
2022;Forges-les-Bains;91249;Essonne;91;16945.0;INDUSTRIE et ACTIVITES ECONOMIQUES (hors irrigation, hors énergie);Mesure directe;2.0707359875018563;48.63037828485848;Contrôlé Niveau 1;Correcte;False;GOLF DE FORGES LES BAINS;{'type': 'Point', 'crs': {'type': 'name', 'properties': {'name': 'urn:ogc:def:crs:OGC:1.3:CRS84'}}, 'coordinates': [2.0707359875018563, 48.63037828485848]};https://id.eaufrance.fr/OuvragePrel/OPR0000040916
2022;Forges-les-Bains;91249;Essonne;91;6291.0;INDUSTRIE et ACTIVITES ECONOMIQUES (hors irrigation, hors énergie);Mesure directe;2.085206273256369;48.6208470000878;Contrôlé Niveau 1;Correcte;False;SARL DU GOLF DE FORGES LES BAI NS;{'type': 'Point', 'crs': {'type': 'name', 'properties': {'name': 'urn:ogc:def:crs:OGC:1.3:CRS84'}}, 'coordinates': [2.0852062732563694, 48.6208470000878]};https://id.eaufrance.fr/OuvragePrel/OPR0000040917
2022;Gif-sur-Yvette;91272;Essonne;91;8820.0;INDUSTRIE et ACTIVITES ECONOMIQUES (hors irrigation, hors énergie);Mesure directe;2.119894134553141;48.698701891455;Contrôlé Niveau 1;Correcte;False;GAIA CONCEPT GIF CHEVRY;{'type': 'Point', 'crs': {'type': 'name', 'properties': {'name': 'urn:ogc:def:crs:OGC:1.3:CRS84'}}, 'coordinates': [2.1198941345531415, 48.698701891454995]};https://id.eaufrance.fr/OuvragePrel/OPR0000040918
2022;Marcoussis;91363;Essonne;91;8541.0;INDUSTRIE et ACTIVITES ECONOMIQUES (hors irrigation, hors énergie);Mesure directe;2.205174101599406;48.63979784762682;Contrôlé Niveau 1;Correcte;False;HOLCIM BETONS FRANCE;{'type': 'Point', 'crs': {'type': 'name', 'properties': {'name': 'urn:ogc:def:crs:OGC:1.3:CRS84'}}, 'coordinates': [2.2051741015994066, 48.63979784762682]};https://id.eaufrance.fr/OuvragePrel/OPR0000040919
2022;Saint-Pierre-du-Perray;91573;Essonne;91;37764.0;INDUSTRIE et ACTIVITES ECONOMIQUES (hors irrigation, hors énergie);Mesure directe;2.5226306269806336;48.62326858403026;Contrôlé Niveau 1;Correcte;False;Forage ST PIERRE BSS 02205X010 PARC;{'type': 'Point', 'crs': {'type': 'name', 'properties': {'name': 'urn:ogc:def:crs:OGC:1.3:CRS84'}}, 'coordinates': [2.5226306269806336, 48.623268584030264]};https://id.eaufrance.fr/OuvragePrel/OPR0000040931
2022;Évry;91228;Essonne;91;8697.0;INDUSTRIE et ACTIVITES ECONOMIQUES (hors irrigation, hors énergie);Mesure directe;2.4527656540907885;48.637675203770456;Contrôlé Niveau 1;Correcte;False;CEMEX EVRY SURFACE;{'type': 'Point', 'crs': {'type': 'name', 'properties': {'name': 'urn:ogc:def:crs:OGC:1.3:CRS84'}}, 'coordinates': [2.4527656540907885, 48.637675203770456]};https://id.eaufrance.fr/OuvragePrel/OPR0000040932
2022;Chevannes;91159;Essonne;91;26930.0;INDUSTRIE et ACTIVITES ECONOMIQUES (hors irrigation, hors énergie);Mesure directe;2.44484910954242;48.535692432328695;Contrôlé Niveau 1;Correcte;False;Forage 1 Chevannes BSS02574X01 11/S1;{'type': 'Point', 'crs': {'type': 'name', 'properties': {'name': 'urn:ogc:def:crs:OGC:1.3:CRS84'}}, 'coordinates': [2.4448491095424196, 48.535692432328695]};https://id.eaufrance.fr/OuvragePrel/OPR0000040933
2022;Lisses;91340;Essonne;91;6004.0;INDUSTRIE et ACTIVITES ECONOMIQUES (hors irrigation, hors énergie);Mesure directe;2.433830313396841;48.60274802253209;Contrôlé Niveau 1;Correcte;False;Lafarge Centrale Evry;{'type': 'Point', 'crs': {'type': 'name', 'properties': {'name': 'urn:ogc:def:crs:OGC:1.3:CRS84'}}, 'coordinates': [2.433830313396841, 48.60274802253209]};https://id.eaufrance.fr/OuvragePrel/OPR0000040934
2022;Corbeil-Essonnes;91174;Essonne;91;4339.0;INDUSTRIE et ACTIVITES ECONOMIQUES (hors irrigation, hors énergie);Mesure directe;2.472501572520448;48.62401061275628;Contrôlé Niveau 1;Correcte;False;Unibéton Corbeil;{'type': 'Point', 'crs': {'type': 'name', 'properties': {'name': 'urn:ogc:def:crs:OGC:1.3:CRS84'}}, 'coordinates': [2.472501572520448, 48.62401061275628]};https://id.eaufrance.fr/OuvragePrel/OPR0000040935
2022;Courson-Monteloup;91186;Essonne;91;48572.0;INDUSTRIE et ACTIVITES ECONOMIQUES (hors irrigation, hors énergie);Mesure directe;2.122325809459174;48.59596540055875;Contrôlé Niveau 1;Correcte;False;Forage 1 COURSON BSS02564X0020 /F;{'type': 'Point', 'crs': {'type': 'name', 'properties': {'name': 'urn:ogc:def:crs:OGC:1.3:CRS84'}}, 'coordinates': [2.122325809459174, 48.59596540055875]};https://id.eaufrance.fr/OuvragePrel/OPR0000040936
2022;Courson-Monteloup;91186;Essonne;91;24293.0;INDUSTRIE et ACTIVITES ECONOMIQUES (hors irrigation, hors énergie);Mesure directe;2.1410149870619404;48.6000418643919;Contrôlé Niveau 1;Correcte;False;Forage 2 COURSON BSS 02188X003 8/F;{'type': 'Point', 'crs': {'type': 'name', 'properties': {'name': 'urn:ogc:def:crs:OGC:1.3:CRS84'}}, 'coordinates': [2.1410149870619404, 48.6000418643919]};https://id.eaufrance.fr/OuvragePrel/OPR0000040937
2022;Saint-Pierre-du-Perray;91573;Essonne;91;20840.0;INDUSTRIE et ACTIVITES ECONOMIQUES (hors irrigation, hors énergie);Mesure directe;2.529610274408308;48.60755468500814;Contrôlé Niveau 1;Correcte;False;Forage 1 ST PIERRE BSS02205X01 00/F1;{'type': 'Point', 'crs': {'type': 'name', 'properties': {'name': 'urn:ogc:def:crs:OGC:1.3:CRS84'}}, 'coordinates': [2.529610274408308, 48.60755468500814]};https://id.eaufrance.fr/OuvragePrel/OPR0000040938
2022;Milly-la-Forêt;91405;Essonne;91;345359.0;INDUSTRIE et ACTIVITES ECONOMIQUES (hors irrigation, hors énergie);Mesure directe;2.465896243450585;48.41894515268596;Contrôlé Niveau 1;Correcte;False;DAREGAL;{'type': 'Point', 'crs': {'type': 'name', 'properties': {'name': 'urn:ogc:def:crs:OGC:1.3:CRS84'}}, 'coordinates': [2.465896243450585, 48.41894515268596]};https://id.eaufrance.fr/OuvragePrel/OPR0000040939
2022;Plessis-Pâté;91494;Essonne;91;23009.0;INDUSTRIE et ACTIVITES ECONOMIQUES (hors irrigation, hors énergie);Mesure directe;2.3343788898882867;48.61816446237353;Contrôlé Niveau 1;Correcte;False;BLANCHISSERIE KHALYGE2;{'type': 'Point', 'crs': {'type': 'name', 'properties': {'name': 'urn:ogc:def:crs:OGC:1.3:CRS84'}}, 'coordinates': [2.3343788898882867, 48.61816446237353]};https://id.eaufrance.fr/OuvragePrel/OPR0000040940
2022;Étiolles;91225;Essonne;91;75490.0;INDUSTRIE et ACTIVITES ECONOMIQUES (hors irrigation, hors énergie);Mesure directe;2.4708546054095604;48.64465615076401;Contrôlé Niveau 1;Correcte;False;SEGGE  SA;{'type': 'Point', 'crs': {'type': 'name', 'properties': {'name': 'urn:ogc:def:crs:OGC:1.3:CRS84'}}, 'coordinates': [2.4708546054095604, 48.64465615076401]};https://id.eaufrance.fr/OuvragePrel/OPR0000040941
2022;Maisse;91359;Essonne;91;136963.0;INDUSTRIE et ACTIVITES ECONOMIQUES (hors irrigation, hors énergie);Mesure directe;2.367086417069893;48.3984411271153;Contrôlé Niveau 1;Correcte;False;ETS FULCHIRON;{'type': 'Point', 'crs': {'type': 'name', 'properties': {'name': 'urn:ogc:def:crs:OGC:1.3:CRS84'}}, 'coordinates': [2.367086417069893, 48.3984411271153]};https://id.eaufrance.fr/OuvragePrel/OPR0000040944
2022;Maisse;91359;Essonne;91;127775.0;INDUSTRIE et ACTIVITES ECONOMIQUES (hors irrigation, hors énergie);Mesure directe;2.367086417069893;48.3984411271153;Contrôlé Niveau 1;Correcte;False;ETS FULCHIRON;{'type': 'Point', 'crs': {'type': 'name', 'properties': {'name': 'urn:ogc:def:crs:OGC:1.3:CRS84'}}, 'coordinates': [2.367086417069893, 48.3984411271153]};https://id.eaufrance.fr/OuvragePrel/OPR0000040945
2022;Itteville;91315;Essonne;91;40789.0;EAU POTABLE;Mesure directe;2.34220487626838;48.514825079335225;Contrôlé Niveau 1;Correcte;False;ASS PROP DU DOMAINE DE L'EPINE;{'type': 'Point', 'crs': {'type': 'name', 'properties': {'name': 'urn:ogc:def:crs:OGC:1.3:CRS84'}}, 'coordinates': [2.3422048762683794, 48.514825079335225]};https://id.eaufrance.fr/OuvragePrel/OPR0000040946
2022;Évry;91228;Essonne;91;59400.0;INDUSTRIE et ACTIVITES ECONOMIQUES (hors irrigation, hors énergie);Mesure directe;2.4693585964898346;48.62620047841525;Contrôlé Niveau 1;Correcte;False;SAFRAN AIRCRAFT (ex SNECMA);{'type': 'Point', 'crs': {'type': 'name', 'properties': {'name': 'urn:ogc:def:crs:OGC:1.3:CRS84'}}, 'coordinates': [2.4693585964898346, 48.62620047841525]};https://id.eaufrance.fr/OuvragePrel/OPR0000040947
2022;Évry;91228;Essonne;91;27095.0;INDUSTRIE et ACTIVITES ECONOMIQUES (hors irrigation, hors énergie);Mesure directe;2.444355458177474;48.61679436458068;Contrôlé Niveau 1;Correcte;False;SAFRAN AIRCRAFT (ex SNECMA);{'type': 'Point', 'crs': {'type': 'name', 'properties': {'name': 'urn:ogc:def:crs:OGC:1.3:CRS84'}}, 'coordinates': [2.444355458177474, 48.61679436458068]};https://id.eaufrance.fr/OuvragePrel/OPR0000040948
2022;Évry;91228;Essonne;91;56520.0;INDUSTRIE et ACTIVITES ECONOMIQUES (hors irrigation, hors énergie);Mesure directe;2.4693585964898346;48.62620047841525;Contrôlé Niveau 1;Correcte;False;SAFRAN AIRCRAFT (ex SNECMA);{'type': 'Point', 'crs': {'type': 'name', 'properties': {'name': 'urn:ogc:def:crs:OGC:1.3:CRS84'}}, 'coordinates': [2.4693585964898346, 48.62620047841525]};https://id.eaufrance.fr/OuvragePrel/OPR0000040949
2022;Évry;91228;Essonne;91;68160.0;INDUSTRIE et ACTIVITES ECONOMIQUES (hors irrigation, hors énergie);Mesure directe;2.4693585964898346;48.62620047841525;Contrôlé Niveau 1;Correcte;False;SAFRAN AIRCRAFT (ex SNECMA);{'type': 'Point', 'crs': {'type': 'name', 'properties': {'name': 'urn:ogc:def:crs:OGC:1.3:CRS84'}}, 'coordinates': [2.4693585964898346, 48.62620047841525]};https://id.eaufrance.fr/OuvragePrel/OPR0000040950
2022;Saclay;91534;Essonne;91;4093.0;INDUSTRIE et ACTIVITES ECONOMIQUES (hors irrigation, hors énergie);Mesure directe;2.173902103203653;48.74380115411669;Contrôlé Niveau 1;Correcte;False;CENTRE D ESSAIS DE PROPULSEURS;{'type': 'Point', 'crs': {'type': 'name', 'properties': {'name': 'urn:ogc:def:crs:OGC:1.3:CRS84'}}, 'coordinates': [2.173902103203653, 48.74380115411669]};https://id.eaufrance.fr/OuvragePrel/OPR0000040953
2022;Milly-la-Forêt;91405;Essonne;91;1884.0;INDUSTRIE et ACTIVITES ECONOMIQUES (hors irrigation, hors énergie);Mesure directe;2.466297739315813;48.40070155180862;Contrôlé Niveau 1;Correcte;False;soleval ouest;{'type': 'Point', 'crs': {'type': 'name', 'properties': {'name': 'urn:ogc:def:crs:OGC:1.3:CRS84'}}, 'coordinates': [2.466297739315813, 48.40070155180862]};https://id.eaufrance.fr/OuvragePrel/OPR0000040954
2022;Coudray-Montceaux;91179;Essonne;91;98.0;INDUSTRIE et ACTIVITES ECONOMIQUES (hors irrigation, hors énergie);Mesure directe;2.515116668376656;48.57021942050046;Contrôlé Niveau 1;Correcte;False;GOLF DU COUDRAY;{'type': 'Point', 'crs': {'type': 'name', 'properties': {'name': 'urn:ogc:def:crs:OGC:1.3:CRS84'}}, 'coordinates': [2.515116668376656, 48.57021942050046]};https://id.eaufrance.fr/OuvragePrel/OPR0000040955
2022;Coudray-Montceaux;91179;Essonne;91;24496.0;INDUSTRIE et ACTIVITES ECONOMIQUES (hors irrigation, hors énergie);Mesure directe;2.506047849677705;48.56311156383385;Contrôlé Niveau 1;Correcte;False;GOLF  DU COUDRAY UDRAY;{'type': 'Point', 'crs': {'type': 'name', 'properties': {'name': 'urn:ogc:def:crs:OGC:1.3:CRS84'}}, 'coordinates': [2.506047849677705, 48.56311156383385]};https://id.eaufrance.fr/OuvragePrel/OPR0000040956
2022;Vert-le-Petit;91649;Essonne;91;75686.0;INDUSTRIE et ACTIVITES ECONOMIQUES (hors irrigation, hors énergie);Mesure directe;2.362400300345182;48.55313572609776;Contrôlé Niveau 1;Correcte;False;SNPE MATERIAUX ENERGETIQUES;{'type': 'Point', 'crs': {'type': 'name', 'properties': {'name': 'urn:ogc:def:crs:OGC:1.3:CRS84'}}, 'coordinates': [2.362400300345182, 48.55313572609776]};https://id.eaufrance.fr/OuvragePrel/OPR0000040959
2022;Lardy;91330;Essonne;91;68489.0;INDUSTRIE et ACTIVITES ECONOMIQUES (hors irrigation, hors énergie);Mesure directe;2.2748833022021318;48.53021633489461;Contrôlé Niveau 1;Correcte;False;CENTRE TECHNIQUE RENAULT;{'type': 'Point', 'crs': {'type': 'name', 'properties': {'name': 'urn:ogc:def:crs:OGC:1.3:CRS84'}}, 'coordinates': [2.2748833022021313, 48.53021633489461]};https://id.eaufrance.fr/OuvragePrel/OPR0000040962
2022;Lardy;91330;Essonne;91;77.0;INDUSTRIE et ACTIVITES ECONOMIQUES (hors irrigation, hors énergie);Mesure directe;2.2748833022021318;48.53021633489461;Contrôlé Niveau 1;Correcte;False;CENTRE TECHNIQUE RENAULT;{'type': 'Point', 'crs': {'type': 'name', 'properties': {'name': 'urn:ogc:def:crs:OGC:1.3:CRS84'}}, 'coordinates': [2.2748833022021313, 48.53021633489461]};https://id.eaufrance.fr/OuvragePrel/OPR0000040963
2022;Lardy;91330;Essonne;91;21.0;INDUSTRIE et ACTIVITES ECONOMIQUES (hors irrigation, hors énergie);Mesure directe;2.2748833022021318;48.53021633489461;Contrôlé Niveau 1;Correcte;False;CENTRE TECHNIQUE RENAULT;{'type': 'Point', 'crs': {'type': 'name', 'properties': {'name': 'urn:ogc:def:crs:OGC:1.3:CRS84'}}, 'coordinates': [2.2748833022021313, 48.53021633489461]};https://id.eaufrance.fr/OuvragePrel/OPR0000040964
2022;Lardy;91330;Essonne;91;8437.0;INDUSTRIE et ACTIVITES ECONOMIQUES (hors irrigation, hors énergie);Mesure directe;2.283428035218437;48.5214339725777;Contrôlé Niveau 1;Correcte;False;CENTRE TECHNIQUE RENAULT;{'type': 'Point', 'crs': {'type': 'name', 'properties': {'name': 'urn:ogc:def:crs:OGC:1.3:CRS84'}}, 'coordinates': [2.283428035218437, 48.5214339725777]};https://id.eaufrance.fr/OuvragePrel/OPR0000040965
2022;Grigny;91286;Essonne;91;116969.0;INDUSTRIE et ACTIVITES ECONOMIQUES (hors irrigation, hors énergie);Mesure directe;2.3864733031500838;48.64626646088645;Contrôlé Niveau 1;Correcte;False;COCA COLA ENTREPRISE FORAGE 1;{'type': 'Point', 'crs': {'type': 'name', 'properties': {'name': 'urn:ogc:def:crs:OGC:1.3:CRS84'}}, 'coordinates': [2.3864733031500833, 48.646266460886444]};https://id.eaufrance.fr/OuvragePrel/OPR0000040967
2022;Grigny;91286;Essonne;91;146941.0;INDUSTRIE et ACTIVITES ECONOMIQUES (hors irrigation, hors énergie);Mesure directe;2.3880716207783497;48.6442417808082;Contrôlé Niveau 1;Correcte;False;COCA COLA ENTREPRISE FORAGE 2;{'type': 'Point', 'crs': {'type': 'name', 'properties': {'name': 'urn:ogc:def:crs:OGC:1.3:CRS84'}}, 'coordinates': [2.3880716207783497, 48.6442417808082]};https://id.eaufrance.fr/OuvragePrel/OPR0000040968
2022;Angerville;91016;Essonne;91;100986.0;EAU POTABLE;Mesure directe;1.9980868491532653;48.31138185468669;Contrôlé Niveau 1;Correcte;False;ANGERVILLE;{'type': 'Point', 'crs': {'type': 'name', 'properties': {'name': 'urn:ogc:def:crs:OGC:1.3:CRS84'}}, 'coordinates': [1.9980868491532655, 48.31138185468669]};https://id.eaufrance.fr/OuvragePrel/OPR0000199349
2022;Ormoy;91468;Essonne;91;144141.0;EAU POTABLE;Mesure directe;2.458346489456453;48.57142730550269;Contrôlé Niveau 1;Correcte;False;Pompage usine EP de Morsang ng;{'type': 'Point', 'crs': {'type': 'name', 'properties': {'name': 'urn:ogc:def:crs:OGC:1.3:CRS84'}}, 'coordinates': [2.458346489456453, 48.57142730550269]};https://id.eaufrance.fr/OuvragePrel/OPR0000199351
2022;Méréville;91390;Essonne;91;56366.0;IRRIGATION;Mesure directe;2.100248414481245;48.04316197451619;Contrôlé Niveau 1;Correcte;False;GAEC DE VALVERT;{'type': 'Point', 'crs': {'type': 'name', 'properties': {'name': 'urn:ogc:def:crs:OGC:1.3:CRS84'}}, 'coordinates': [2.1002484144812446, 48.04316197451619]};https://id.eaufrance.fr/OuvragePrel/OPR0000199563
2022;Saclay;91534;Essonne;91;40680.0;IRRIGATION;Mesure directe;2.1632983472716045;48.73928396631394;Contrôlé Niveau 1;Correcte;False;SCEA DUPRE;{'type': 'Point', 'crs': {'type': 'name', 'properties': {'name': 'urn:ogc:def:crs:OGC:1.3:CRS84'}}, 'coordinates': [2.1632983472716045, 48.73928396631394]};https://id.eaufrance.fr/OuvragePrel/OPR0000199566
2022;Saclay;91534;Essonne;91;24270.0;IRRIGATION;Mesure directe;2.1632983472716045;48.73928396631394;Contrôlé Niveau 1;Correcte;False;SCEA DUPRE;{'type': 'Point', 'crs': {'type': 'name', 'properties': {'name': 'urn:ogc:def:crs:OGC:1.3:CRS84'}}, 'coordinates': [2.1632983472716045, 48.73928396631394]};https://id.eaufrance.fr/OuvragePrel/OPR0000199567
2022;Blandy;91067;Essonne;91;55614.0;IRRIGATION;Mesure directe;2.256942470096022;48.32330461188065;Contrôlé Niveau 1;Correcte;False;EARL CHAMBON;{'type': 'Point', 'crs': {'type': 'name', 'properties': {'name': 'urn:ogc:def:crs:OGC:1.3:CRS84'}}, 'coordinates': [2.256942470096022, 48.32330461188065]};https://id.eaufrance.fr/OuvragePrel/OPR0000199570
2022;Authon-la-Plaine;91035;Essonne;91;64436.0;IRRIGATION;Mesure directe;1.9578657380275557;48.45044268851227;Contrôlé Niveau 1;Correcte;False;PUITS 27M LD les GUIGNARDS;{'type': 'Point', 'crs': {'type': 'name', 'properties': {'name': 'urn:ogc:def:crs:OGC:1.3:CRS84'}}, 'coordinates': [1.9578657380275555, 48.45044268851227]};https://id.eaufrance.fr/OuvragePrel/OPR0000199574
2022;Ormoy;91468;Essonne;91;68609.0;INDUSTRIE et ACTIVITES ECONOMIQUES (hors irrigation, hors énergie);Mesure directe;2.454850980962165;48.57168571270013;Contrôlé Niveau 1;Correcte;False;PE LOUVRE LINGE LOCATION ALISE R;{'type': 'Point', 'crs': {'type': 'name', 'properties': {'name': 'urn:ogc:def:crs:OGC:1.3:CRS84'}}, 'coordinates': [2.454850980962165, 48.57168571270013]};https://id.eaufrance.fr/OuvragePrel/OPR0000199592
2022;Verrières-le-Buisson;91645;Essonne;91;5280.0;INDUSTRIE et ACTIVITES ECONOMIQUES (hors irrigation, hors énergie);Mesure directe;2.2400338776080377;48.73763842839816;Contrôlé Niveau 1;Correcte;False;Forage/Source;{'type': 'Point', 'crs': {'type': 'name', 'properties': {'name': 'urn:ogc:def:crs:OGC:1.3:CRS84'}}, 'coordinates': [2.2400338776080377, 48.737638428398164]};https://id.eaufrance.fr/OuvragePrel/OPR0000199594
2022;Puiselet-le-Marais;91508;Essonne;91;81735.0;IRRIGATION;Mesure directe;2.523466699158394;48.72667610262743;Contrôlé Niveau 1;Correcte;False;EARL VAUPAILLARD;{'type': 'Point', 'crs': {'type': 'name', 'properties': {'name': 'urn:ogc:def:crs:OGC:1.3:CRS84'}}, 'coordinates': [2.523466699158394, 48.72667610262743]};https://id.eaufrance.fr/OuvragePrel/OPR0000199887
2022;Maisse;91359;Essonne;91;35238.0;INDUSTRIE et ACTIVITES ECONOMIQUES (hors irrigation, hors énergie);Mesure directe;2.3907959320172045;48.385735685692296;Contrôlé Niveau 1;Correcte;False;point d'eau du site 91359006;{'type': 'Point', 'crs': {'type': 'name', 'properties': {'name': 'urn:ogc:def:crs:OGC:1.3:CRS84'}}, 'coordinates': [2.3907959320172045, 48.385735685692296]};https://id.eaufrance.fr/OuvragePrel/OPR0000200051
2022;Fontenay-le-Vicomte;91244;Essonne;91;29725.0;IRRIGATION;Mesure directe;2.381892619002867;48.54220970941413;Contrôlé Niveau 1;Correcte;False;FONTENAY-LE-VICOMTE;{'type': 'Point', 'crs': {'type': 'name', 'properties': {'name': 'urn:ogc:def:crs:OGC:1.3:CRS84'}}, 'coordinates': [2.381892619002867, 48.542209709414124]};https://id.eaufrance.fr/OuvragePrel/OPR0000333346
2022;Richarville;91519;Essonne;91;128082.0;EAU POTABLE;Mesure directe;1.995624640552483;48.46959157996041;Contrôlé Niveau 1;Correcte;False;RICHARVILLE;{'type': 'Point', 'crs': {'type': 'name', 'properties': {'name': 'urn:ogc:def:crs:OGC:1.3:CRS84'}}, 'coordinates': [1.995624640552483, 48.46959157996041]};https://id.eaufrance.fr/OuvragePrel/OPR0000333828
2022;Pussay;91511;Essonne;91;141419.0;EAU POTABLE;Mesure directe;1.993198890929252;48.350487776846464;Contrôlé Niveau 1;Correcte;False;captage de Pussay II;{'type': 'Point', 'crs': {'type': 'name', 'properties': {'name': 'urn:ogc:def:crs:OGC:1.3:CRS84'}}, 'coordinates': [1.9931988909292522, 48.350487776846464]};https://id.eaufrance.fr/OuvragePrel/OPR0000333833
2022;Janville-sur-Juine;91318;Essonne;91;561702.0;EAU POTABLE;Mesure directe;2.2476383164092675;48.49915158635923;Contrôlé Niveau 1;Correcte;False;LES CLOSEAUX JANVILLE-SUR-JUIN E 02572X0003/F;{'type': 'Point', 'crs': {'type': 'name', 'properties': {'name': 'urn:ogc:def:crs:OGC:1.3:CRS84'}}, 'coordinates': [2.2476383164092675, 48.49915158635923]};https://id.eaufrance.fr/OuvragePrel/OPR0000333836
2022;Saint-Germain-lès-Corbeil;91553;Essonne;91;11550.0;INDUSTRIE et ACTIVITES ECONOMIQUES (hors irrigation, hors énergie);Mesure directe;2.484656003410385;48.63534375873663;Contrôlé Niveau 1;Correcte;False;Forage Golf St Germain les Cor beil;{'type': 'Point', 'crs': {'type': 'name', 'properties': {'name': 'urn:ogc:def:crs:OGC:1.3:CRS84'}}, 'coordinates': [2.4846560034103855, 48.63534375873663]};https://id.eaufrance.fr/OuvragePrel/OPR0000333882
2022;Blandy;91067;Essonne;91;7049.0;EAU POTABLE;Mesure directe;2.254751470477788;48.320544201188696;Contrôlé Niveau 1;Correcte;False;BLANDY;{'type': 'Point', 'crs': {'type': 'name', 'properties': {'name': 'urn:ogc:def:crs:OGC:1.3:CRS84'}}, 'coordinates': [2.254751470477788, 48.320544201188696]};https://id.eaufrance.fr/OuvragePrel/OPR0000333884
2022;Bouville;91100;Essonne;91;24140.0;IRRIGATION;Mesure directe;2.2886854935331247;48.431330148716086;Contrôlé Niveau 1;Correcte;False;Bouville;{'type': 'Point', 'crs': {'type': 'name', 'properties': {'name': 'urn:ogc:def:crs:OGC:1.3:CRS84'}}, 'coordinates': [2.2886854935331247, 48.431330148716086]};https://id.eaufrance.fr/OuvragePrel/OPR0000546170
2022;Bouville;91100;Essonne;91;116707.0;IRRIGATION;Mesure directe;2.2709644160382245;48.45258976532617;Contrôlé Niveau 1;Correcte;False;Bouville ferme de Noncerve;{'type': 'Point', 'crs': {'type': 'name', 'properties': {'name': 'urn:ogc:def:crs:OGC:1.3:CRS84'}}, 'coordinates': [2.2709644160382245, 48.45258976532617]};https://id.eaufrance.fr/OuvragePrel/OPR0000546171
2022;Abbéville-la-Rivière;91001;Essonne;91;121834.0;IRRIGATION;Mesure directe;2.2250996272552444;48.34918415858674;Contrôlé Niveau 1;Correcte;False;Ferme de Quincampoix;{'type': 'Point', 'crs': {'type': 'name', 'properties': {'name': 'urn:ogc:def:crs:OGC:1.3:CRS84'}}, 'coordinates': [2.2250996272552444, 48.34918415858674]};https://id.eaufrance.fr/OuvragePrel/OPR0000546172
2022;Congerville-Thionville;91613;Essonne;91;69152.0;IRRIGATION;Mesure directe;1.996846034770024;48.37595744830886;Contrôlé Niveau 1;Correcte;False;EARL GUERIN THIONVILLE;{'type': 'Point', 'crs': {'type': 'name', 'properties': {'name': 'urn:ogc:def:crs:OGC:1.3:CRS84'}}, 'coordinates': [1.9968460347700239, 48.37595744830886]};https://id.eaufrance.fr/OuvragePrel/OPR0000546405
2022;Itteville;91315;Essonne;91;1071498.0;EAU POTABLE;Mesure directe;2.34220487626838;48.514825079335225;Contrôlé Niveau 1;Correcte;False;ITTEVILLE;{'type': 'Point', 'crs': {'type': 'name', 'properties': {'name': 'urn:ogc:def:crs:OGC:1.3:CRS84'}}, 'coordinates': [2.3422048762683794, 48.514825079335225]};https://id.eaufrance.fr/OuvragePrel/OPR0000546584
2022;Brières-les-Scellés;91109;Essonne;91;14133.0;INDUSTRIE et ACTIVITES ECONOMIQUES (hors irrigation, hors énergie);Mesure directe;2.149126299349205;48.45390215638071;Contrôlé Niveau 1;Correcte;False;Forage Blanchisserie BSC;{'type': 'Point', 'crs': {'type': 'name', 'properties': {'name': 'urn:ogc:def:crs:OGC:1.3:CRS84'}}, 'coordinates': [2.149126299349205, 48.45390215638071]};https://id.eaufrance.fr/OuvragePrel/OPR0000546594
2022;Forêt-Sainte-Croix;91248;Essonne;91;559507.0;EAU POTABLE;Mesure directe;2.227499253734833;48.38322191604916;Contrôlé Niveau 1;Correcte;False;LES GATINES F6 tines;{'type': 'Point', 'crs': {'type': 'name', 'properties': {'name': 'urn:ogc:def:crs:OGC:1.3:CRS84'}}, 'coordinates': [2.227499253734833, 48.38322191604916]};https://id.eaufrance.fr/OuvragePrel/OPR0000585998
2022;Pussay;91511;Essonne;91;4250.0;IRRIGATION;Mesure directe;1.9952944983255123;48.35395422987192;Contrôlé Niveau 1;Correcte;False;EARL DES RATEAUX;{'type': 'Point', 'crs': {'type': 'name', 'properties': {'name': 'urn:ogc:def:crs:OGC:1.3:CRS84'}}, 'coordinates': [1.9952944983255125, 48.35395422987192]};https://id.eaufrance.fr/OuvragePrel/OPR0000586043
2022;Grigny;91286;Essonne;91;496216.0;INDUSTRIE et ACTIVITES ECONOMIQUES (hors irrigation, hors énergie);Mesure directe;2.382501186046769;48.64812592267487;Contrôlé Niveau 1;Correcte;False;COCA COLA ENTREPRISE FORAGE 3;{'type': 'Point', 'crs': {'type': 'name', 'properties': {'name': 'urn:ogc:def:crs:OGC:1.3:CRS84'}}, 'coordinates': [2.3825011860467695, 48.64812592267487]};https://id.eaufrance.fr/OuvragePrel/OPR0000586068
2022;Chatignonville;91145;Essonne;91;121711.0;IRRIGATION;Mesure directe;1.9308449642491528;48.470301708985694;Contrôlé Niveau 1;Correcte;False;EARL LES GRANDS NOIRS;{'type': 'Point', 'crs': {'type': 'name', 'properties': {'name': 'urn:ogc:def:crs:OGC:1.3:CRS84'}}, 'coordinates': [1.9308449642491528, 48.470301708985694]};https://id.eaufrance.fr/OuvragePrel/OPR0000586211
2022;Ollainville;91461;Essonne;91;5241.0;IRRIGATION;Mesure directe;2.2232915186771534;48.59242104780788;Contrôlé Niveau 1;Correcte;False;EARL ROBERT BROSSARD ET FILS;{'type': 'Point', 'crs': {'type': 'name', 'properties': {'name': 'urn:ogc:def:crs:OGC:1.3:CRS84'}}, 'coordinates': [2.2232915186771534, 48.59242104780788]};https://id.eaufrance.fr/OuvragePrel/OPR0000586241
2022;Bondoufle;91086;Essonne;91;57033.0;INDUSTRIE et ACTIVITES ECONOMIQUES (hors irrigation, hors énergie);Mesure directe;2.380433500927545;48.60607129999554;Contrôlé Niveau 1;Correcte;False;Forage golf Bondoufle;{'type': 'Point', 'crs': {'type': 'name', 'properties': {'name': 'urn:ogc:def:crs:OGC:1.3:CRS84'}}, 'coordinates': [2.380433500927545, 48.60607129999554]};https://id.eaufrance.fr/OuvragePrel/OPR0000591987
2022;Pussay;91511;Essonne;91;62112.0;IRRIGATION;Mesure directe;2.000445628813705;48.34786139862337;Contrôlé Niveau 1;Correcte;False;Rte dept D18 / rte Mondreville  / chemin rural des Carreaux n;{'type': 'Point', 'crs': {'type': 'name', 'properties': {'name': 'urn:ogc:def:crs:OGC:1.3:CRS84'}}, 'coordinates': [2.000445628813705, 48.34786139862337]};https://id.eaufrance.fr/OuvragePrel/OPR0000592004
2022;Écharcon;91204;Essonne;91;6194.0;INDUSTRIE et ACTIVITES ECONOMIQUES (hors irrigation, hors énergie);Mesure directe;2.394713344076456;48.58639066504343;Contrôlé Niveau 1;Correcte;False;Chemin de braseux, Echarcon;{'type': 'Point', 'crs': {'type': 'name', 'properties': {'name': 'urn:ogc:def:crs:OGC:1.3:CRS84'}}, 'coordinates': [2.3947133440764556, 48.58639066504343]};https://id.eaufrance.fr/OuvragePrel/OPR0000592005
2022;Chalo-Saint-Mars;91130;Essonne;91;48450.0;IRRIGATION;Mesure directe;2.066105643823676;48.42135671459622;Contrôlé Niveau 1;Correcte;False;La Bernerie;{'type': 'Point', 'crs': {'type': 'name', 'properties': {'name': 'urn:ogc:def:crs:OGC:1.3:CRS84'}}, 'coordinates': [2.066105643823676, 48.42135671459622]};https://id.eaufrance.fr/OuvragePrel/OPR0000598512
2022;Boigneville;91069;Essonne;91;80871.0;IRRIGATION;Mesure directe;2.3604303401902618;48.32586130193087;Contrôlé Niveau 1;Correcte;False;MOULIN PAILLARD;{'type': 'Point', 'crs': {'type': 'name', 'properties': {'name': 'urn:ogc:def:crs:OGC:1.3:CRS84'}}, 'coordinates': [2.3604303401902618, 48.32586130193087]};https://id.eaufrance.fr/OuvragePrel/OPR0000598596
2022;Gironville-sur-Essonne;91273;Essonne;91;98174.0;IRRIGATION;Mesure directe;2.379473059619264;48.37003110586057;Contrôlé Niveau 1;Correcte;False;La croix;{'type': 'Point', 'crs': {'type': 'name', 'properties': {'name': 'urn:ogc:def:crs:OGC:1.3:CRS84'}}, 'coordinates': [2.3794730596192637, 48.37003110586057]};https://id.eaufrance.fr/OuvragePrel/OPR0000598598
2022;Ballancourt-sur-Essonne;91045;Essonne;91;15740.0;IRRIGATION;Mesure directe;2.3941214508740893;48.51681404914624;Contrôlé Niveau 1;Correcte;False;Norma bonnet;{'type': 'Point', 'crs': {'type': 'name', 'properties': {'name': 'urn:ogc:def:crs:OGC:1.3:CRS84'}}, 'coordinates': [2.3941214508740893, 48.516814049146234]};https://id.eaufrance.fr/OuvragePrel/OPR0000598599
2022;Videlles;91654;Essonne;91;73210.0;IRRIGATION;Mesure directe;2.426254595736124;48.46848396523016;Contrôlé Niveau 1;Correcte;False;Videlles;{'type': 'Point', 'crs': {'type': 'name', 'properties': {'name': 'urn:ogc:def:crs:OGC:1.3:CRS84'}}, 'coordinates': [2.426254595736124, 48.46848396523016]};https://id.eaufrance.fr/OuvragePrel/OPR0000598659
2022;Boutigny-sur-Essonne;91099;Essonne;91;97248.0;IRRIGATION;Mesure directe;2.3930789676904785;48.447744082994646;Contrôlé Niveau 1;Correcte;False;Ferme de marchais;{'type': 'Point', 'crs': {'type': 'name', 'properties': {'name': 'urn:ogc:def:crs:OGC:1.3:CRS84'}}, 'coordinates': [2.3930789676904785, 48.447744082994646]};https://id.eaufrance.fr/OuvragePrel/OPR0000598660
2022;Méréville;91390;Essonne;91;19300.0;IRRIGATION;Mesure directe;2.083472966138923;48.31294708752342;Contrôlé Niveau 1;Correcte;False;Méréville;{'type': 'Point', 'crs': {'type': 'name', 'properties': {'name': 'urn:ogc:def:crs:OGC:1.3:CRS84'}}, 'coordinates': [2.083472966138923, 48.31294708752342]};https://id.eaufrance.fr/OuvragePrel/OPR0000598663
2022;Pussay;91511;Essonne;91;5485.0;IRRIGATION;Mesure directe;1.9816935849752613;48.35290234214794;Contrôlé Niveau 1;Correcte;False;Mmontbergeon;{'type': 'Point', 'crs': {'type': 'name', 'properties': {'name': 'urn:ogc:def:crs:OGC:1.3:CRS84'}}, 'coordinates': [1.9816935849752615, 48.35290234214794]};https://id.eaufrance.fr/OuvragePrel/OPR0000598664
2022;Monnerville;91414;Essonne;91;145862.0;IRRIGATION;Mesure directe;2.04001353444909;48.34463461487872;Contrôlé Niveau 1;Correcte;False;Sentier des Quatre Muids;{'type': 'Point', 'crs': {'type': 'name', 'properties': {'name': 'urn:ogc:def:crs:OGC:1.3:CRS84'}}, 'coordinates': [2.04001353444909, 48.34463461487872]};https://id.eaufrance.fr/OuvragePrel/OPR0000608706
2022;Saint-Cyr-sous-Dourdan;91546;Essonne;91;66848.0;IRRIGATION;Mesure directe;2.025611521243009;48.56993424071608;Contrôlé Niveau 1;Correcte;False;hameau de foisnard;{'type': 'Point', 'crs': {'type': 'name', 'properties': {'name': 'urn:ogc:def:crs:OGC:1.3:CRS84'}}, 'coordinates': [2.0256115212430092, 48.56993424071608]};https://id.eaufrance.fr/OuvragePrel/OPR0000608720
2022;Saint-Escobille;91547;Essonne;91;38772.0;IRRIGATION;Mesure directe;1.9630870705515493;48.43053283063573;Contrôlé Niveau 1;Correcte;False;EARL DU VIEUX MOULIN;{'type': 'Point', 'crs': {'type': 'name', 'properties': {'name': 'urn:ogc:def:crs:OGC:1.3:CRS84'}}, 'coordinates': [1.9630870705515493, 48.43053283063573]};https://id.eaufrance.fr/OuvragePrel/OPR0000608725
2022;Chalo-Saint-Mars;91130;Essonne;91;107363.0;IRRIGATION;Mesure directe;2.060087267953299;48.41322975806967;Contrôlé Niveau 1;Correcte;False;Parcelle 25 section H;{'type': 'Point', 'crs': {'type': 'name', 'properties': {'name': 'urn:ogc:def:crs:OGC:1.3:CRS84'}}, 'coordinates': [2.060087267953299, 48.41322975806967]};https://id.eaufrance.fr/OuvragePrel/OPR0000608744
2022;Janvry;91319;Essonne;91;51165.0;IRRIGATION;Mesure directe;2.155266759170764;48.646461857595206;Contrôlé Niveau 1;Correcte;False;Lieu-dit Fresneau;{'type': 'Point', 'crs': {'type': 'name', 'properties': {'name': 'urn:ogc:def:crs:OGC:1.3:CRS84'}}, 'coordinates': [2.155266759170764, 48.646461857595206]};https://id.eaufrance.fr/OuvragePrel/OPR0000608766
2022;Saint-Hilaire;91556;Essonne;91;100546.0;IRRIGATION;Mesure directe;2.084792412950352;48.44116980057987;Contrôlé Niveau 1;Correcte;False;SCEA Ferme d'ardennes;{'type': 'Point', 'crs': {'type': 'name', 'properties': {'name': 'urn:ogc:def:crs:OGC:1.3:CRS84'}}, 'coordinates': [2.084792412950352, 48.44116980057987]};https://id.eaufrance.fr/OuvragePrel/OPR0000608767
2022;Marcoussis;91363;Essonne;91;21362.0;INDUSTRIE et ACTIVITES ECONOMIQUES (hors irrigation, hors énergie);Mesure directe;2.2485181790023114;48.63753344686998;Contrôlé Niveau 1;Correcte;False;Point d'eau Centre national de  Rugby de Marcoussis;{'type': 'Point', 'crs': {'type': 'name', 'properties': {'name': 'urn:ogc:def:crs:OGC:1.3:CRS84'}}, 'coordinates': [2.2485181790023114, 48.63753344686998]};https://id.eaufrance.fr/OuvragePrel/OPR0000608780
2022;Corbreuse;91175;Essonne;91;32764.0;EAU POTABLE;Mesure directe;1.959622387772102;48.50072278360457;Contrôlé Niveau 1;Correcte;False;captage Corbreuse 1;{'type': 'Point', 'crs': {'type': 'name', 'properties': {'name': 'urn:ogc:def:crs:OGC:1.3:CRS84'}}, 'coordinates': [1.959622387772102, 48.50072278360457]};https://id.eaufrance.fr/OuvragePrel/OPR0000612833
2022;Guillerval;91294;Essonne;91;121792.0;EAU POTABLE;Mesure directe;2.077966098869328;48.36617192921338;Contrôlé Niveau 1;Correcte;False;Garsenval 02924X0027/F;{'type': 'Point', 'crs': {'type': 'name', 'properties': {'name': 'urn:ogc:def:crs:OGC:1.3:CRS84'}}, 'coordinates': [2.077966098869328, 48.36617192921338]};https://id.eaufrance.fr/OuvragePrel/OPR0000613024
2022;Vert-le-Grand;91648;Essonne;91;396.0;IRRIGATION;Mesure directe;2.3439892117878083;48.58422381252418;Contrôlé Niveau 1;Correcte;False;Ferme la Croix st André;{'type': 'Point', 'crs': {'type': 'name', 'properties': {'name': 'urn:ogc:def:crs:OGC:1.3:CRS84'}}, 'coordinates': [2.3439892117878083, 48.58422381252418]};https://id.eaufrance.fr/OuvragePrel/OPR0000613136
2022;Chevannes;91159;Essonne;91;40488.0;IRRIGATION;Mesure directe;2.439516532354451;48.52893847146751;Contrôlé Niveau 1;Correcte;False;Chevannes;{'type': 'Point', 'crs': {'type': 'name', 'properties': {'name': 'urn:ogc:def:crs:OGC:1.3:CRS84'}}, 'coordinates': [2.439516532354451, 48.528938471467505]};https://id.eaufrance.fr/OuvragePrel/OPR0000613146
2022;Vauhallan;91635;Essonne;91;13650.0;IRRIGATION;Mesure directe;2.193348735291418;48.73245699607389;Contrôlé Niveau 1;Correcte;False;Jardin cocagne du limon;{'type': 'Point', 'crs': {'type': 'name', 'properties': {'name': 'urn:ogc:def:crs:OGC:1.3:CRS84'}}, 'coordinates': [2.193348735291418, 48.73245699607389]};https://id.eaufrance.fr/OuvragePrel/OPR0000613196
2022;Milly-la-Forêt;91405;Essonne;91;2752.0;INDUSTRIE et ACTIVITES ECONOMIQUES (hors irrigation, hors énergie);Mesure directe;2.465420811219619;48.42050843382336;Contrôlé Niveau 1;Correcte;False;Forage 'secours' DAREGAL;{'type': 'Point', 'crs': {'type': 'name', 'properties': {'name': 'urn:ogc:def:crs:OGC:1.3:CRS84'}}, 'coordinates': [2.465420811219619, 48.42050843382336]};https://id.eaufrance.fr/OuvragePrel/OPR0000613276
2022;Roinvilliers;91526;Essonne;91;159354.0;IRRIGATION;Mesure directe;2.241291775642888;48.3355229314585;Contrôlé Niveau 1;Correcte;False;Roinvilliers;{'type': 'Point', 'crs': {'type': 'name', 'properties': {'name': 'urn:ogc:def:crs:OGC:1.3:CRS84'}}, 'coordinates': [2.241291775642888, 48.3355229314585]};https://id.eaufrance.fr/OuvragePrel/OPR0000613288
2022;Chevannes;91159;Essonne;91;1566.0;IRRIGATION;Mesure directe;2.443168657056261;48.535765537140215;Contrôlé Niveau 1;Correcte;False;EARL DES 4 VENTS;{'type': 'Point', 'crs': {'type': 'name', 'properties': {'name': 'urn:ogc:def:crs:OGC:1.3:CRS84'}}, 'coordinates': [2.443168657056261, 48.535765537140215]};https://id.eaufrance.fr/OuvragePrel/OPR0000613769
2022;Coudray-Montceaux;91179;Essonne;91;2908.0;IRRIGATION;Mesure directe;2.485521294634977;48.555603125759326;Contrôlé Niveau 1;Correcte;False;EARL DES 4 VENTS;{'type': 'Point', 'crs': {'type': 'name', 'properties': {'name': 'urn:ogc:def:crs:OGC:1.3:CRS84'}}, 'coordinates': [2.485521294634977, 48.555603125759326]};https://id.eaufrance.fr/OuvragePrel/OPR0000613828
2022;Ollainville;91461;Essonne;91;7296.0;IRRIGATION;Mesure directe;2.222088000701422;48.59310585601708;Contrôlé Niveau 1;Correcte;False;EARL MANGINI;{'type': 'Point', 'crs': {'type': 'name', 'properties': {'name': 'urn:ogc:def:crs:OGC:1.3:CRS84'}}, 'coordinates': [2.222088000701422, 48.593105856017075]};https://id.eaufrance.fr/OuvragePrel/OPR0000613880
2022;Vert-le-Grand;91648;Essonne;91;68389.0;IRRIGATION;Mesure directe;2.3851982195872505;48.59535541822668;Contrôlé Niveau 1;Correcte;False;EARL SCHINTGEN;{'type': 'Point', 'crs': {'type': 'name', 'properties': {'name': 'urn:ogc:def:crs:OGC:1.3:CRS84'}}, 'coordinates': [2.3851982195872505, 48.59535541822668]};https://id.eaufrance.fr/OuvragePrel/OPR0000613953
2022;Orveau;91473;Essonne;91;54553.0;IRRIGATION;Mesure directe;2.293642706674348;48.44877267452851;Contrôlé Niveau 1;Correcte;False;ORVEAU;{'type': 'Point', 'crs': {'type': 'name', 'properties': {'name': 'urn:ogc:def:crs:OGC:1.3:CRS84'}}, 'coordinates': [2.2936427066743477, 48.44877267452851]};https://id.eaufrance.fr/OuvragePrel/OPR0000628276
2022;Saint-Escobille;91547;Essonne;91;145604.0;IRRIGATION;Mesure directe;1.9519596473643528;48.42718706782189;Contrôlé Niveau 1;Correcte;False;Sté Delanoué;{'type': 'Point', 'crs': {'type': 'name', 'properties': {'name': 'urn:ogc:def:crs:OGC:1.3:CRS84'}}, 'coordinates': [1.9519596473643526, 48.42718706782189]};https://id.eaufrance.fr/OuvragePrel/OPR0000628334
2022;Fontenay-le-Vicomte;91244;Essonne;91;9146.0;IRRIGATION;Mesure directe;2.3985919508952964;48.54380664586643;Contrôlé Niveau 1;Correcte;False;Ferme petit moulin;{'type': 'Point', 'crs': {'type': 'name', 'properties': {'name': 'urn:ogc:def:crs:OGC:1.3:CRS84'}}, 'coordinates': [2.3985919508952964, 48.54380664586643]};https://id.eaufrance.fr/OuvragePrel/OPR0000628355
2022;Fontenay-le-Vicomte;91244;Essonne;91;96154.0;IRRIGATION;Mesure directe;2.4083147225049606;48.53821500611104;Contrôlé Niveau 1;Correcte;False;les messis;{'type': 'Point', 'crs': {'type': 'name', 'properties': {'name': 'urn:ogc:def:crs:OGC:1.3:CRS84'}}, 'coordinates': [2.4083147225049606, 48.53821500611104]};https://id.eaufrance.fr/OuvragePrel/OPR0000628356
2022;Méréville;91390;Essonne;91;22096.0;IRRIGATION;Mesure directe;2.239527889111989;48.35860790366482;Contrôlé Niveau 1;Correcte;False;Estouches chemein des blées d' or;{'type': 'Point', 'crs': {'type': 'name', 'properties': {'name': 'urn:ogc:def:crs:OGC:1.3:CRS84'}}, 'coordinates': [2.239527889111989, 48.35860790366482]};https://id.eaufrance.fr/OuvragePrel/OPR0000628358
2022;Brétigny-sur-Orge;91103;Essonne;91;11168.0;INDUSTRIE et ACTIVITES ECONOMIQUES (hors irrigation, hors énergie);Mesure directe;2.29571485889842;48.59073064102654;Contrôlé Niveau 1;Correcte;False;point d;{'type': 'Point', 'crs': {'type': 'name', 'properties': {'name': 'urn:ogc:def:crs:OGC:1.3:CRS84'}}, 'coordinates': [2.2957148588984198, 48.59073064102654]};https://id.eaufrance.fr/OuvragePrel/OPR0000628366
2022;Boissy-le-Sec;91081;Essonne;91;50.0;IRRIGATION;Mesure directe;2.0906321031092907;48.48033273042438;Contrôlé Niveau 1;Correcte;False;Chenu;{'type': 'Point', 'crs': {'type': 'name', 'properties': {'name': 'urn:ogc:def:crs:OGC:1.3:CRS84'}}, 'coordinates': [2.0906321031092907, 48.48033273042438]};https://id.eaufrance.fr/OuvragePrel/OPR0000628854
2022;Chatignonville;91145;Essonne;91;60657.0;IRRIGATION;Mesure directe;1.9284285203472225;48.46804867939934;Contrôlé Niveau 1;Correcte;False;Dallier Laurent;{'type': 'Point', 'crs': {'type': 'name', 'properties': {'name': 'urn:ogc:def:crs:OGC:1.3:CRS84'}}, 'coordinates': [1.9284285203472225, 48.46804867939934]};https://id.eaufrance.fr/OuvragePrel/OPR0000628898
2022;Chatignonville;91145;Essonne;91;9215.0;IRRIGATION;Mesure directe;1.9288142667988868;48.46969860447947;Contrôlé Niveau 1;Correcte;False;Dallier père et fils;{'type': 'Point', 'crs': {'type': 'name', 'properties': {'name': 'urn:ogc:def:crs:OGC:1.3:CRS84'}}, 'coordinates': [1.9288142667988868, 48.46969860447947]};https://id.eaufrance.fr/OuvragePrel/OPR0000628899
2022;Monnerville;91414;Essonne;91;45618.0;IRRIGATION;Mesure directe;2.0141437260421404;48.21106996393628;Contrôlé Niveau 1;Correcte;False;SCEA boucher;{'type': 'Point', 'crs': {'type': 'name', 'properties': {'name': 'urn:ogc:def:crs:OGC:1.3:CRS84'}}, 'coordinates': [2.0141437260421404, 48.21106996393628]};https://id.eaufrance.fr/OuvragePrel/OPR0000628900
2022;Guillerval;91294;Essonne;91;835.0;IRRIGATION;Mesure directe;2.0742451751691844;48.36622134268553;Contrôlé Niveau 1;Correcte;False;Cressonnières ju 16;{'type': 'Point', 'crs': {'type': 'name', 'properties': {'name': 'urn:ogc:def:crs:OGC:1.3:CRS84'}}, 'coordinates': [2.0742451751691844, 48.36622134268553]};https://id.eaufrance.fr/OuvragePrel/OPR0000628966
